CURRENT_MINE_NAME,MINE_ID,CURRENT_MINE_TYPE,CURRENT_CONTROLLER_NAME,CURRENT_OPERATOR_ID,CURRENT_OPERATOR_NAME,PRIMARY_SIC,latitude,longitude,NEAREST_TOWN
Maine Monroeville,5001031,Surface,Nome Gold Company,125073,Nome Gold Alaska Corporation,Gold Ore,64.541389,-165.408611,Nome
Red Dog,5001545,Surface,Teck Resources Limited,L10019,Teck Alaska Inc,Lead-Zinc Ore,68.046111,-162.433889,Kotzebue
Kauai Aggregates,5100190,Surface,O Thronas Incorporated; Priscilla K  Thronas,95346,Kauai Aggregates,"Crushed, Broken Stone NEC",21.911457,-159.546432,Lihue
Bluestone Quarry & Mill,5100011,Surface,James W Glover Holding Company Ltd,L34773,Jas W Glover Ltd,"Crushed, Broken Traprock",21.966301,-159.397117,Lihue
Portable Plant,5100224,Surface,Lawrence E  Wilderman,51342,Pacific Aggregate,Construction Sand and Gravel,21.415692,-158.155025,waianae
Makakilo Quarry,5100173,Surface,Alexander & Baldwin Incorporated,L07273,Grace Pacific LLC,Dimension Stone NEC,21.351936,-158.064909,kAPOLEI
Halawa Valley,5100036,Surface,MDU Resources Group Inc,L08811,Hawaiian Cement,"Crushed, Broken Stone NEC",21.371944,-157.9125,AIEA
Kapaa Quarry And Mill,5100019,Surface,Pohaku Paa LLC,134414,Ameron Hawaii LLC,"Crushed, Broken Traprock",21.378055,-157.769444,HONOLULU
Waikapu Quarry,5100171,Surface,MDU Resources Group Inc,L08811,Hawaiian Cement,"Crushed, Broken Stone NEC",20.880871,-156.504856,Wailuku
Puunene Quarry,5100192,Surface,MDU Resources Group Inc,L08811,Hawaiian Cement,"Crushed, Broken Stone NEC",20.851804,-156.461111,Kahului
Puunene Camp 10 Quarry,5100004,Surface,Pohaku Paa LLC,134414,Ameron Hawaii LLC,"Crushed, Broken Traprock",20.8638,-156.4531,Puuene
Arrow Hawaiian dba.,5100302,Surface,Joseph  Chamberlain,106145,Arrow of Oregon/Hawaii LLC,Construction Sand and Gravel,19.133283,-155.72929,Ocean View
Puuheihei Cinder Quarry,5100225,Surface,Edwin  DeLuz,L32961,Edwin Deluz Trucking & Gravel LLC,"Crushed, Broken Stone NEC",19.898682,-155.665857,Kamuela
Edwin DeLuz Trucking & Gravel LLC,5100199,Surface,Edwin  DeLuz,L32961,Edwin DeLuz Trucking & Gravel LLC,"Crushed, Broken Stone NEC",20.028055,-155.565555,Waimea
"Yamada And Sons, Inc.",5100046,Surface,Donald  Yamada,L01426,"Yamada and Sons, Inc.","Crushed, Broken Stone NEC",19.708683,-155.063548,Hilo
Hilo Crusher,5100008,Surface,James W Glover Holding Company Ltd,L34773,James W Glover Ltd,"Crushed, Broken Traprock",19.708174,-155.057179,hILO
Keaau Quarry,5100165,Surface,Russell  Kuwaye,L15677,Puna Rock Company Ltd,"Crushed, Broken Stone NEC",19.626944,-155.021388,Keaau
Sanford's Service Center Incorporated,5100223,Surface,Sanford  Iwata,L14468,Sanford's Service Center Inc,"Crushed, Broken Stone NEC",19.506944,-154.958889,Pahoa
Usibelli,5000030,Surface,Joseph E  Usibelli,P04002,Usibelli Coal Mine Inc,Coal (Bituminous),63.856944,-148.966111,Healy
Northland Coal Screening Plant,5001977,Facility,Mark W  Sanford,80506,Northland Fuels and Energy,Coal (Bituminous),63.856944,-148.966111,Healy
Scabtron,5001614,Underground,Mark E  Miell,L38257,Scabtron,Gold Ore,65.076667,-147.549722,Fairbanks
Fort Knox Mine,5001616,Surface,Kinross Gold Corp,L33155,Fairbanks Gold Mining Inc,Gold Ore,65.072777,-146.521944,Fairbanks
Pogo Mine,5001642,Underground,Sumitomo Metal Mining Co Ltd,L16072,Sumitomo Metal Mining Pogo LLC,Gold Ore,64.259722,-146.111111,Delta Junction
Kensington,5001544,Underground,"Coeur Mining, Inc.",L13779,Coeur Alaska Inc,Gold Ore,58.799444,-135.017222,Juneau
Hecla Greens Creek Mine,5001267,Underground,Hecla Mining Company,L11319,Hecla Greens Creek Mining Company,Silver Ore,58.1175,-134.745833,Juneau
Kincheloe Quarry,3501003,Surface,Wesley J  Kincheloe,L01786,Kincheloe & Sons Inc,"Crushed, Broken Traprock",43.105556,-124.161389,Myrtle Point
ALTON PIT & MILL,402711,Surface,Robert C  McLaughlin; Michael J  McLaughlin,L05691,Eureka Sand & Gravel Co Inc,Construction Sand and Gravel,40.548611,-124.149444,EUREKA
ERM Rock,405368,Surface,Robert C  McLaughlin; Michael J  McLaughlin,L05691,Eureka Ready Mix Concrete Co Inc,Construction Sand and Gravel,40.513888,-124.128055,scotia
Portable Crusher,3503291,Surface,Ronald D  Braxling,L02274,Braxling & Braxling Inc,"Crushed, Broken Stone NEC",44.648055,-124.0475,NEWPORT
Cedar Creek Quarries Inc-Fischer Pit,3502376,Surface,Robert G  Wienert,L07267,Cedar Creek Quarries Inc,"Crushed, Broken Traprock",44.637222,-124.042777,Lincoln city
Cedar Creek Quarries Inc-Cedar Creek Pit,3503123,Surface,Robert G  Wienert,L07267,Cedar Creek Quarries Inc,"Crushed, Broken Traprock",44.637222,-124.042777,Newport
Cedar Creek Quarries Inc - Panky Pit,3503353,Surface,Robert G  Wienert,L07267,"Cedar Creek Quarries, Inc","Crushed, Broken Stone NEC",44.637222,-124.042777,Cedar creek
CHRISTIE BAR,401760,Surface,Robert C  McLaughlin; Michael J  McLaughlin,L05691,Eureka Sand & Gravel Co. Inc.,Construction Sand and Gravel,40.888504,-123.997872,
Eagle Portable Crusher,3503558,Surface,Shawn  Teevin; Tom  Fischer,76163,Teevin & Fischer Quarry LLC,"Crushed, Broken Stone NEC",46.058888,-123.915277,Seaside
Portable Crusher,4503331,Surface,Jesse  Kollman,L15676,Arris Kollman Trucking Inc,"Crushed, Broken Traprock",46.969444,-123.844444,Hoquiam
Heinz pit,3503364,Surface,(Andrew) Martin  Nygaard,L35863,"Warrenton Fiber Company, Inc.","Crushed, Broken Stone NEC",46.169444,-123.811666,Clatsop
Newskah Quarry ,4500319,Surface,Randy  Rognlin,L15456,Northwest Rock Inc,"Crushed, Broken Traprock",46.898055,-123.809722,Aberdeen
Hawks Superior Rock Inc,4503304,Surface,Michael  Runyon,L34142,Hawks Superior Rock Inc,"Crushed, Broken Traprock",46.690833,-123.803888,Raymond
Randall Sand & Gravel,404280,Surface,Cathy R  Studebaker,76943,Randall Sand & Gravel,Construction Sand and Gravel,40.093611,-123.799722,Garberville
Naselle Quarry,4500063,Surface,Arne L Wirkkala,L06086,Naselle Rock & Asphalt Company,"Crushed, Broken Traprock",46.381735,-123.785008,Naselle
Whiskey CR Plant,3503436,Surface,Clay E  Cook,L15669,S-C Paving Company,"Crushed, Broken Stone NEC",45.442222,-123.765833,Tillamook
Chinook Quarry ,4501129,Surface,Arne L Wirkkala,L06086,Naselle Rock & Asphalt Company,"Crushed, Broken Traprock",46.410841,-123.758678,Naselle
Wynoochee Pit East,4503552,Surface,Randy  Rognlin,L15456,Northwest Rock Inc,Construction Sand and Gravel,47.078611,-123.581944,Aberdeen
Black Diamond Quarry,4503570,Surface,Dennis  Holcomb,54796,D. Holcomb & Co.,Construction Sand and Gravel,48.060278,-123.498056,Port Angeles
Oakridge Sand & Gravel Incorporated,3500524,Surface,Edward B Fisher,L36841,Oakridge Sand & Gravel Inc,Construction Sand and Gravel,44.073611,-123.483056,Oakridge
Andersen & Sons Gravel,4503441,Surface,Andrew  Andersen; Eric  Andersen,L17355,Andersen & Sons Gravel,"Crushed, Broken Stone NEC",48.118055,-123.430833,Port Angeles
Shenk Quarry,3502841,Surface,Dan  Kauffman,50968,D K  Quarries Inc,"Crushed, Broken Stone NEC",44.985277,-123.429166,Rickreal
BEAR CREEK QUARRY,3500135,Surface,Mary Lou  Garrett,L12344,W W D Corp,"Crushed, Broken Stone NEC",43.63989,-123.351496,Drain
Harris Quarry,405139,Surface,Frank  Dutra,L36772,Northern Aggregates Inc,"Crushed, Broken Stone NEC",39.3375,-123.310556,PORTALBE
Territorial Rock Pit,3503343,Surface,Joseph G  Pilling,68023,Precision Aggregate Products Inc,"Crushed, Broken Stone NEC",44.296111,-123.295277,Monroe
Conser Quarry,3500089,Surface,George  Tracer,L32067,Conser Quarry Co,"Crushed, Broken Traprock",44.251944,-123.271388,Junction City
Fisher Island Plant ,3500463,Surface,MDU Resources Group Inc,L16679,Knife River Corporation - Northwest,"Crushed, Broken Traprock",44.556388,-123.264722,Corvallis
ESG Corvallis Facility,3502705,Surface,CRH PLC,L00029,Green & White Rock Products ,Construction Sand and Gravel,44.488611,-123.26,corvalis
Portable Crusher,3501306,Surface,Carla A  Robertson,L02708,Robco Inc,"Crushed, Broken Traprock",42.435,-123.254444,Grants Pass
Martin Creek Quarry,3503435,Surface,Robert  Mullins,L15029,Martin Creek Quarry Inc,"Crushed, Broken Stone NEC",43.854722,-123.205278,Cottage Grove
Blake Pit,4500581,Surface,David A  Blake; Casey L  Blake,109806,"Blake Sand & Gravel, Inc.",Construction Sand and Gravel,48.130556,-123.1675,Sequim
Lawson Quarry Inc,4503325,Surface,Richard  Lawson Jr; Thomas  Lawson,L37770,Lawson Quarry Inc,Construction Sand and Gravel,48.555,-123.137222,Friday harbor
Shelton Pit,4502282,Surface,Walt  Miles,L00797,Miles Sand & Gravel Company ,Construction Sand and Gravel,47.209722,-123.133056,Shelton
Bowyer Quarry,3501203,Surface,John F  Kamph,L35086,Kamph Rock Crushing Company Inc,"Crushed, Broken Stone NEC",45.151944,-123.121111,Dayton
Davis Sand & Gravel Incorporated,4500616,Surface,Dana  Davis,L32465,Davis Sand & Gravel Company Inc,Construction Sand and Gravel,48.106944,-123.111667,Sequim
Kennedy Creek Quarry,4503066,Surface,James L  Thurman,L35157,Kennedy Creek Quarry Incorporated,"Crushed, Broken Traprock",47.107423,-123.108636,Shelton
LITTLE CREEK ROCK QUARRY,4503436,Surface,Jesse  Kollman,L15676,Arris Kollman Trucking Inc,"Crushed, Broken Traprock",47.149444,-123.108333,Shelton
Delta Pit And Plant,3500481,Surface,Paula J  Babb,L32531,Delta Sand & Gravel Company,Construction Sand and Gravel,44.096667,-123.107222,Eugene
MBI Portable Crusher #1,3503321,Surface,MDU Resources Group Inc,L16679,Knife River Corporation - Northwest,"Crushed, Broken Traprock",44.559166,-123.1025,Linn
ESG Eugene Facility,3500484,Surface,CRH PLC,L00029,Eugene Sand & Gravel ,Construction Sand and Gravel,44.095833,-123.099166,Eugene
WCP Inc dba Commercial Redi-Mix ,3500472,Surface,WCP Incorporated,83544,Commercial Redi-Mix ,Construction Sand and Gravel,44.919722,-123.098333,Salem
Plant #1,3503356,Surface,Aggregate Resource Industries Inc,117994,"Aggregate Resource Crushing, LLC","Crushed, Broken Stone NEC",44.051944,-123.086667,Cottage Grove
Portable 1,3503746,Surface,Brent  Kerr,108985,Columbia Northwest Recycling Inc.,"Crushed, Broken Stone NEC",45.471944,-123.076111,Cornelius
Manke Family Res LP Johns Prairie Mine,4503473,Surface,Manke Family Resources & Tacoma Timber Company,L18181,Manke Family Resources LP,Construction Sand and Gravel,47.232778,-123.067778,Shelton
Wildish Sand & Gravel Co Plant #2,3500515,Surface,Wildish Land Company,L02579,Wildish Sand & Gravel Co,Construction Sand and Gravel,44.11,-123.066666,Eugene
Keizer Pit & Plant,3500503,Surface,J Scott  Erickson,L39862,Viesko Redi Mix Inc,Construction Sand and Gravel,44.998611,-123.058333,Keizer
ESG Coburg Facility,3501064,Surface,CRH PLC,L00029,Eugene Sand & Gravel,Construction Sand and Gravel,44.1225,-123.057222,Eugene
Egge Quarry,3503658,Surface,Vernon L  Egge,79683,Coburg Road Quarry LLC,"Crushed, Broken Stone NEC",44.119444,-123.053888,Eugene
Windsor Rock Products,3503425,Surface,James A  Monaghan,L14774,Windsor Rock Products ,"Crushed, Broken Stone NEC",45.043313,-123.050837,Keizer
Bayshore Pit,4502286,Surface,Dietz  Kadoun,107905,Bayshore Sand & Gravel,Construction Sand and Gravel,47.249167,-123.045833,Shelton
"Diamond T Natural Resources, LLC",404981,Surface,Wendel  Trappe,L31541,"Canyon Rock Co., Inc",Construction Sand and Gravel,38.475277,-123.045555,CAZADERO
Portable Crusher,4503556,Surface,John R  Moerke,L16693,Alderbrook Quarry Inc,"Crushed, Broken Stone NEC",46.580556,-123.033889,Chehalis
VIESKO PIT AND PLANT,3500557,Surface,J Scott  Erickson,L39862,Viesko Redi Mix Inc,Construction Sand and Gravel,45.095833,-123.031944,Brooks
Crabtree Pit,3503444,Surface,Richard  Jonas,122614,"Crabtree Crushing, Inc","Crushed, Broken Stone NEC",45.272777,-123.026111,DUNDEE
Reed Pit,3502968,Surface,MDU Resources Group Inc,L16679,Knife River Corporation - Northwest,Construction Sand and Gravel,45.059167,-123.013889,tangent
La Grange Mine,404900,Surface,Larry E  Yingling,L09730,Eagle Rock Inc,Dimension Stone NEC,40.734444,-123.003333,Yreka
Delphi Limestone Company,1200023,Surface,Heritage Group,L02006,"U S Aggregates, Inc.","Crushed, Broken Limestone NEC",46.973333,-122.996666,Delphi
PIT #1,4501429,Surface,Mark John  Dulin,L12435,Dulin Construction Inc,Construction Sand and Gravel,46.756632,-122.992777,Centralia
Willow Creek Aggregate,3503378,Surface,Michael Ray  Hilton,L34279,Hilton Fuel & Supply Company,"Crushed, Broken Stone NEC",42.383889,-122.976389,Central Point
Ellendale Portable Crusher,3500631,Surface,CRH PLC,L00029,Valley Concrete & Gravel Co.,"Crushed, Broken Stone NEC",44.898611,-122.974166,Dallas
Portable Rock Production Co. Sears Pit,3502761,Surface,Lonny  Bessett,L01183,Portable Rock Production Company Inc,"Crushed, Broken Stone NEC",43.982635,-122.974005,Pleasant Hill
Turner Gravel Facility,3502478,Surface,CRH PLC,L00029,River Bend Sand & Gravel Co.,"Crushed, Broken Stone NEC",44.846193,-122.963337,Turner
Portable 1,3503496,Surface,MDU Resources Group Inc,L16679,Knife River Corporation-Northwest,"Crushed, Broken Stone NEC",42.421111,-122.959444,Medford
Portable 3,3503667,Surface,MDU Resources Group Inc,L16679,Knife River Corporation-Northwest,"Crushed, Broken Stone NEC",42.421111,-122.959444,Central Point
Kirtland,3500512,Surface,MDU Resources Group Inc,L16679,Knife River Corporation - Northwest,Construction Sand and Gravel,42.423333,-122.958611,Medford
Good Portable Crusher,4503086,Surface,Alan Lee  Good,L10615,Good Crushing Inc,Construction Sand and Gravel,46.538888,-122.954722,Chehalis
BREEN PORTABLE NO.2,4503261,Surface,Sterling D  Breen,L10886,Sterling Breen Crushing Inc,Construction Sand and Gravel,46.726388,-122.952222,Centralia
Venable Pit,3503467,Surface,Edward J  Kernaghan,98945,"Southern Oregon Ready Mix, LLC","Crushed, Broken Stone NEC",42.415,-122.946111,CENTRAL POINT
Portable #1,4503656,Surface,Rusty  Gill,123451,R.G. Crushing Inc.,"Crushed, Broken Basalt",46.649722,-122.945556,Chehalis
Hard Rock Gardiner Pit,4503234,Surface,William  Arness,L18641,Hard Rock Inc,Construction Sand and Gravel,48.055556,-122.942778,Gardiner
Canyon Rock Co Inc,400079,Surface,Wendel  Trappe,L31541,Canyon Rock Co Inc,"Crushed, Broken Stone NEC",38.514444,-122.923333,Forestville
Sea Island Quarry,4503250,Surface,Rockwell B  Arnt,L16331,Sea Island Corp,"Crushed, Broken Stone NEC",48.645833,-122.920833,Eastsound
Plant #3,3503619,Surface,Chris  Galpin; John  Holmes,L18406,Southern Oregon Rock,"Crushed, Broken Stone NEC",42.422014,-122.918961,Eagle Point
Maytown Sand & Gravel,4503698,Surface,Robert R  Lloyd,L04848,"Lloyd Enterprises, Inc.",Construction Sand and Gravel,46.888055,-122.9125,Maytown
Waterview,3503605,Surface,MDU Resources Group Inc,L16679,Knife River Corporation - Northwest,Construction Sand and Gravel,45.950106,-122.909148,Deer Island
Farmington Pit,3500634,Surface,Gary T  Baker,L06838,Baker Rock Crushing Company,"Crushed, Broken Traprock",45.457434,-122.905026,Beaverton
JLS CRUSHER #2,4502700,Surface,Jerry L  Storedahl,L08232,J L Storedahl & Sons Inc,Construction Sand and Gravel,46.118333,-122.893611,Kelso
Blue Rock Quarry,400276,Surface,Dean  Soiland,L11084,BoDean Company Inc,"Crushed, Broken Traprock",38.463611,-122.882777,Santa Rosa
Hamilton Resources,4503119,Surface,Walt  Miles,L00797,Miles Sand & Gravel,Construction Sand and Gravel,46.842848,-122.87603,Tenino
Scappoose Sand & Gravel Company,3500798,Surface,Scott T  Parker,L38260,Scappoose Sand & Gravel Company,Construction Sand and Gravel,45.766666,-122.873055,Scappoose
Healdsburg Main Plant,401700,Surface,James M  Syar,L01976,Syar Industries Inc,Construction Sand and Gravel,38.603888,-122.855555,healdsberg
Santosh DBA CalPortland,3500525,Surface,Taiheiyo Cement Corp,L11900,CalPortland Company,Construction Sand and Gravel,45.787222,-122.851388,Portland
Eagle Star Rock Products LLC,3503438,Surface,John L  Jersey II; Mike P  Wilkins,L18573,Eagle Star Rock Products LLC,"Crushed, Broken Stone NEC",45.870833,-122.839444,Portland
Moores Gravel Inc,404744,Surface,Richard S  Moore,118507,"Moore's Gravel, Inc","Crushed, Broken Stone NEC",41.348611,-122.8275,siskiyou
MBI Portable Crusher #2,3503527,Surface,MDU Resources Group Inc,L16679,Knife River Corporation - Northwest,"Crushed, Broken Stone NEC",45.870555,-122.815277,Lebanon
Bear Creek,4503599,Surface,Stephen J  Johnson,51163,Peninsula Topsoil,"Sand, Common",47.496944,-122.814444,Belfair
Northfork Excavating Incorporated,3503418,Surface,Debbie J  Eaton,L14078,Northfork Excavating Inc,"Crushed, Broken Stone NEC",45.351388,-122.813611,Sherwood
Crusher #4,3503608,Surface,Lloyd  Town,L01520,Meisel Rock Products,"Crushed, Broken Stone NEC",45.341632,-122.80584,McMinnville
Coffee Lake Pond,3503022,Surface,MDU Resources Group Inc,L16679,Knife River Corporation - Northwest,"Crushed, Broken Traprock",45.351472,-122.803169,Portland
104  Portable,3503429,Surface,A J  Urbanek,56397,Tigard Sand & Gravel LLC,"Crushed, Broken Stone NEC",45.36428,-122.799593,Tualatin
Stayton Rock Pit,3500521,Surface,MDU Resources Group Inc,L16679,Knife River Corporation - Northwest,Construction Sand and Gravel,44.789166,-122.794444,tangent
Olympia Sand & Gravel,4500670,Surface,Walt  Miles,L00797,Miles Sand & Gravel Company,Construction Sand and Gravel,47.062182,-122.793214,Lacey
Rivergate,3503659,Facility,Ridgely H  Gilmour; Mark A  Gilmour,78223,Gilmour and Company,Lime,45.622778,-122.784167,St. Johns
RIVERGATE PLANT,3500320,Facility,Ash Grove Cement Company,L02019,Ash Grove Cement Company,"Crushed, Broken Limestone NEC",45.622777,-122.784166,Portland
Cotton Pit & Plant,4502316,Surface,John T  Shold,L05502,Shold Excavating Inc Cotton Redi Mix,Construction Sand and Gravel,48.024444,-122.7675,Port Hadlock
Fazio Bros Sand Co Inc,4502661,Surface,Richard G  Fazio,L33197,Fazio Bros Sand Co Inc,Construction Sand and Gravel,45.713333,-122.751666,Vancouver
Columbia River Carbonates (Woodland Mill,4503286,Facility,Northwest Carbonates; Bleeck Management,L09028,Columbia River Carbonates,"Crushed, Broken Marble",45.904559,-122.743991,Woodland
"Soiland Co., Inc.",400284,Surface,Marvin K  Soiland,L10196,"Soiland Co., Inc.","Crushed, Broken Stone NEC",38.321944,-122.736666,STONEY POINT
Circle C Rock Products,4503307,Surface,Netta E  Groat,L16777,Circle C Rock Products,Construction Sand and Gravel,45.861299,-122.731227,Ridgefield
Tucker Hill Mill,3503433,Facility,Seven Peaks Mining,L16895,Cornerstone Industrial Minerals,Perlite,45.548888,-122.726944,Lakeview
Port of Vancouver DBA CalPortland,4503285,Surface,Taiheiyo Cement Corp,L11900,CalPortland Company,Construction Sand and Gravel,45.644876,-122.723004,Vancouver
Panther Crushing Portable,3503290,Surface,William D Link Trust,L37062,Panther Crushing Inc,"Crushed, Broken Stone NEC",42.461944,-122.722222,Brownsboro
Canby Pit,3503508,Surface,Cemex S A,103149,CEMEX Construction Materials Pacific LLC,"Crushed, Broken Stone NEC",45.241389,-122.721111,Redmond
Canby Sand & Gravel Co,3500497,Surface,Parker-Northwest Inc,L02395,Parker Northwest Paving Co Inc,"Crushed, Broken Stone NEC",45.253611,-122.713889,Canby
Nisqually Pit,4500637,Surface,Stephen  Nielsen; David  Nielsen,L04125,Holroyd Co Inc,Construction Sand and Gravel,47.049874,-122.708811,Olympia
ACE QUARRY,4503177,Surface,Richard N  Christopherson,L00676,Ace Paving Company Inc,Construction Sand and Gravel,47.551944,-122.705,Bremerton
Portable 1,3503532,Surface,Matthew  Chavarria,L18410,Chavarria Construction Inc,"Crushed, Broken Stone NEC",44.958056,-122.700833,silverton
KRMI Quarry,4503363,Surface,Patrick  Lockhart,L15049,Kitsap Reclamation & Materials Inc,"Crushed, Broken Traprock",47.533056,-122.691944,Gorst
Shine Facility,4502816,Surface,Walt  Miles,L00797,Miles Sand and Gravel Company,Construction Sand and Gravel,47.925369,-122.683491,Tenino
Rock Quarry,4503582,Surface,Garry R  Gardner,60424,Gardner Trucking,"Crushed, Broken Stone NEC",46.330278,-122.682222,Toutle
Meadows Rock,3503491,Surface,Mike  Wilkins,L17128,Wilkins Trucking Company Inc,Construction Sand and Gravel,45.589444,-122.680833,PORTLAND
X-Rock ,3503670,Surface,Richard G  Roberts; Jerry R  Becker,97285,X-Rock LLC,"Crushed, Broken Stone NEC",44.789722,-122.675278,Falls City
Hidden Valley Sand & Gravel,401930,Surface,Beverly  Van Pelt; Donald  Van Pelt,L14475,Clearlake Lava Inc,Construction Sand and Gravel,39.026284,-122.67193,CLEARLAKE OAKS
Washington Mine,403425,Underground,Timothy A  Callaway,57397,French Gulch (Nevada) Mining Corp,Gold Ore,40.718889,-122.671389,French Gulch
Airport Pit,4502854,Surface,Walt  Miles,L08402,Port Orchard Sand & Gravel Company Inc,Construction Sand and Gravel,47.430833,-122.665833,Port Orchard
Pt Lakeview Rock & Redi Mix,403608,Surface,Beverly  Van Pelt; Donald  Van Pelt,L14475,Clearlake Lava Inc,Pumice,38.927222,-122.6625,clearlake
Ross Island Plant ,3500540,Surface,R B Pamplin Corp,L37998,Ross Island Sand & Gravel Company,Construction Sand and Gravel,45.493145,-122.657383,
Mark West Quarry,400600,Surface,Dean  Soiland,L11084,Bodean Co Inc,"Crushed, Broken Stone NEC",38.5525,-122.653055,SANTA ROSA
Dupont Pit,4503334,Surface,Taiheiyo Cement Corp,L11900,CalPortland Company,Construction Sand and Gravel,47.122777,-122.640555,Dupont
Prairie Gravel Pit,4502990,Surface,Curt A  Youderian,L10109,Ed's Construction,Construction Sand and Gravel,48.197777,-122.638055,Coupeville
Jerico Products Inc,405003,Surface,Michael  Lind; Barbara  Lind,L13561,Jerico Products Inc,"Crushed, Broken Limestone NEC",38.234444,-122.634166,PETALUMA
Island County RM,4500951,Surface,Walt  Miles,L06508,Concrete Nor'West,Construction Sand and Gravel,48.356666,-122.613888,Oak Harbor
Boulder Hill Pit,4503481,Surface,Walt  Miles,L06508,Concrete Nor'West,"Crushed, Broken Stone NEC",48.361666,-122.603611,Oak Harbor
Columbia Granite,4503406,Surface,James W  Gilmore,L16711,Columbia Granite LLC,"Crushed, Broken Granite",46.844444,-122.6025,Olympia
"Rempel Bro's Concrete, Inc.",4502244,Surface,Edward L  Rempel; David B  Walden,81724,"Rempel Bro's Concrete, Inc.",Construction Sand and Gravel,48.153611,-122.595833,Greenbank
Harvey W Buche Road Building Inc,3503260,Surface,Harvey W  Buche,51240,Harvey W Buche Road Building Inc,"Crushed, Broken Stone NEC",45.096944,-122.587777,Molalla
Lewisville Pit,4503293,Surface,Cemex S A,51582,Pacific Rock Products LLC,Construction Sand and Gravel,45.764368,-122.560987,Vancouver
"Winston Quarry, Inc.",4503622,Surface,Bart  Lyons,77686,Winston Quarry Inc. ,Construction Sand and Gravel,46.510833,-122.556388,Onalaska
CLEARLAKE LAVA,401036,Surface,Beverly  Van Pelt; Donald  Van Pelt,L14475,Clearlake Lava Inc,Pumice,38.984444,-122.546944,CLEARLAKE
Portland Road and Driveway Co Inc,3500522,Surface,Thomas R  Bright,L02547,Portland Road and Driveway Co Inc,Construction Sand and Gravel,45.403056,-122.546389,Clackamas
English Pit,4503089,Surface,Cemex S A,51582,Pacific Rock Products LLC,Construction Sand and Gravel,45.621111,-122.526111,Camas
Lehigh Northwest Cement Company,4502166,Facility,Heidelberg Cement AG,86244,Lehigh Northwest Cement Company,Cement,48.769183,-122.524699,Bellingham
Roy,4503281,Surface,Walt  Miles,L00797,Miles Sand & Gravel Co Inc,Construction Sand and Gravel,46.978611,-122.500556,Roy
Ball Road Quarry,3503771,Surface,Gary T  Baker,L06838,Baker Rock Resources,"Crushed, Broken Basalt",45.114444,-122.490556,Molalla
Rock Plant,4503173,Surface,Nick L.  Seegert Jr.,81084,Seegert Crushing Inc,"Crushed, Broken Stone NEC",48.165833,-122.475277,CAMANO ISLAND
Plant 1 J Davidson & Sons Const Co Inc,3503297,Surface,David J  Davidson; Jerald M  Davidson,L34589,J Davidson & Sons Construction Company Inc,"Crushed, Broken Traprock",43.739722,-122.467778,Oakridge
Plant 2 J Davidson & Sons Const Co Inc,3503420,Surface,David J  Davidson; Jerald M  Davidson,L34589,J Davidson & Sons Construction Company Inc,"Crushed, Broken Stone NEC",43.739722,-122.467777,Oakridge
Gresham Sand & Gravel Co,3500495,Surface,MDU Resources Group Inc,L16679,Knife River Corporation - Northwest,Construction Sand and Gravel,45.505877,-122.462763,Gresham
KETT SIDING,405096,Surface,Jerry D  Comingdeer,L32237,Crystal Creek Aggregate Inc,Construction Sand and Gravel,40.606944,-122.4625,REDDING
Axton Pit,4503707,Surface,Steven B  Cowden,L32169,"Cowden, Inc.",Construction Sand and Gravel,48.85,-122.460277,Bellingham
San Rafael Rock Quarry,400021,Surface,Bill T  Dutra,L14733,Dutra Materials,"Crushed, Broken Stone NEC",37.984166,-122.453333,San Rafael
Bluelake DBA CalPortland,3503537,Surface,Taiheiyo Cement Corp,L11900,CalPortland Company,"Crushed, Broken Stone NEC",45.559366,-122.44871,
Courtney Pit,4503269,Surface,Waldow Family Enterprises Inc,96685,North Clark Construction,"Crushed, Broken Traprock",45.902777,-122.43,Yacolt
Rickard Rock Quarry,3503655,Surface,Donn (Ted) Theodore  Salka,76743,Farwest Portable Crushing Inc,"Crushed, Broken Stone NEC",45.501111,-122.4225,Gresham
Guadalupe,400174,Surface,Dan  Evans; Wayne  Evans,91225,Evans Brothers Inc,"Crushed, Broken Sandstone",37.687222,-122.419166,Brisbane
VASHON SAND AND GRAVEL dba CalPortland ,4501707,Surface,Taiheiyo Cement Corp,L11900,CalPortland Company,Construction Sand and Gravel,47.380833,-122.418611,Vashon
Aggregate Products,404146,Surface,John F  Shea,L16117,Aggregate Products,Construction Sand and Gravel,40.508905,-122.416721,
Tacoma Plant,4503290,Surface,Graymont Ltd,L11495,Graymont Western US Inc,Lime,47.271111,-122.3975,Fife
A & B Rock Pit,4503685,Surface,Brandon  Crabtree; Aaron  Crabtree,113745,"A & B Rock, Inc.",Construction Sand and Gravel,48.891111,-122.3975,Everson
Westside Aggregate,405280,Surface,William R  Schmitt,L14881,Westside Aggregate,"Crushed, Broken Stone NEC",40.507469,-122.397137,
PILARCITOS QUARRY,402261,Surface,Vulcan Materials Company,L16645,CalMat Co,"Crushed, Broken Stone NEC",37.494722,-122.392222,Half Moon Bay
San Francisco Marine Plant,405261,Surface,Heidelberg Cement AG,64607,"Hanson Aggregates Mid-Pacific, Inc.",Construction Sand and Gravel,37.745555,-122.377777,SAN FRANCISCO
Estacada Rock Products Inc,3500483,Surface,Allen M  Collins; David L.  Coffin,L33085,Estacada Rock Products Inc,Construction Sand and Gravel,45.302778,-122.358333,Estacada
Canyon Resources,4503561,Surface,Walt  Miles,L00797,Miles Sand and Gravel Company,Construction Sand and Gravel,47.201388,-122.356111,Puyallup
Seattle Plant,4500805,Facility,Lafarge S A,L18663,Lafarge North America Inc,Cement,47.554444,-122.345278,Seattle
Seattle Plant,4500359,Facility,Ash Grove Cement Company,L02019,Ash Grove Cement Company,Cement,47.567222,-122.3425,Seattle
Belleville,4503633,Surface,Walt  Miles,L06508,Concrete Nor'West,Construction Sand and Gravel,48.526666,-122.340277,Burlington
J A Jack & Sons,4503239,Facility,Sharon  Jack; Linda  Jack Liebich,L34568,J A Jack & Sons Inc,Lime,47.553611,-122.339444,Seattle
Portable C,4503605,Surface,David  Grainger,L11920,Aggregates West Inc,Construction Sand and Gravel,48.953611,-122.331111,Sumas
Simpson Pit,4503524,Surface,Dan L  Simpson,83264,Simpson Sand & Gravel,Construction Sand and Gravel,48.123333,-122.322777,Stanwood
Milton Pit,4503069,Surface,Robert R  Lloyd,L04848,"Lloyd Enterprises, Inc.",Construction Sand and Gravel,47.26,-122.321389,Tacoma
Redding Plant,400034,Surface,Heidelberg Cement AG,L16900,Lehigh Southwest Cement Company,Cement,40.7375,-122.318056,Redding
Fawndale Rock & Asphalt,405290,Surface,John F  Shea,L15868,Fawndale Rock & Asphalt,"Crushed, Broken Stone NEC",40.733888,-122.317222,Redding
BUTLER PIT,4500590,Surface,Walt  Miles,L06508,Concrete Nor'West,Construction Sand and Gravel,48.529722,-122.311667,Marysville
SWA @ Mountain Gate Quarry,405504,Surface,Corkey  Harmon,84884,"Stimpel Wiebelhaus Associates, Inc.","Crushed, Broken Stone NEC",40.734458,-122.310051,
Pacific Quarry,4500844,Surface,Martin Marietta Materials Inc,L16197,"Martin Marietta Materials, Inc","Crushed, Broken Stone NEC",48.382782,-122.30019,Mt. Vernon
Siper Road Pit,4503341,Surface,Walt  Miles,L06508,Concrete Nor'West,Construction Sand and Gravel,48.878333,-122.296111,Mt. Vernon
Thun Field Pit,4501111,Surface,Scott D  Corliss,51079,Corliss Resources Inc,Construction Sand and Gravel,47.149444,-122.293056,Puyallup
Siper Quarry,4503593,Surface,Steven B  Cowden,L32169,"Cowden, Inc. ","Crushed, Broken Stone NEC",48.858611,-122.293056,Everson
Shasta Ranch Aggregates,405753,Surface,Lyle  Tullis,L39649,"Tullis, Inc.",Construction Sand and Gravel,40.455833,-122.281666,Anderson
Napa Quarry,400023,Surface,James M  Syar,L01976,Syar Industries Inc,"Sand, Industrial NEC",38.261944,-122.275833,napa
Napa Shop,405242,Surface,James M  Syar,L01976,Syar Industries Inc,"Crushed, Broken Stone NEC",38.261944,-122.275833,napa
Lynch Creek Quarry LLC,4502016,Surface,David G  Randles,L14220,Lynch Creek Quarry LLC,Construction Sand and Gravel,46.875278,-122.260833,Eatonville
"IKO Pacific, Inc",4503419,Facility,Goldis Enterprises Inc,L17085,"IKO Pacific, Inc","Crushed, Broken Limestone NEC",48.992777,-122.255,Sumas
Turk Pit,4503715,Surface,Sandra  Forman,80044,"Pacific Topsoils, Inc.",Construction Sand and Gravel,48.075,-122.255,Marysville
Langley Hill Quarry ,400170,Surface,Michael W  Dempsey; Patrick K  Dempsey,L35444,Langley Hill Quarry,"Crushed, Broken Traprock",37.336111,-122.247777,WOODSIDE
Manufacturers Mineral Co. Renton Plant,4503315,Surface,Jim  Anderson,L02691,Manufacturers Mineral Company,Construction Sand and Gravel,47.467778,-122.242778,Renton
Everett Pit & Plant,4500577,Surface,Cemex S A,103149,Cemex Construction Materials Pacific LLC,Construction Sand and Gravel,47.939323,-122.236586,Everett
Oakland Marine Plant,403002,Surface,Heidelberg Cement AG,64607,"Hanson Aggregates Mid-Pacific, Inc.",Construction Sand and Gravel,37.764383,-122.222287,Oakland
Fennel Resources ,4503423,Surface,Walt  Miles,L00797,Miles Sand & Gravel Company,Construction Sand and Gravel,47.150278,-122.216389,Auburn
Auburn Facility,4501237,Surface,CRH PLC,L00029,ICON Materials,Construction Sand and Gravel,47.2725,-122.202778,Auburn
King Creek Pit,4503455,Surface,Harry W  Hart,L40046,Washington Rock Quarries Inc,Construction Sand and Gravel,47.037222,-122.194722,Orting
Whatcom Portable Mill,4500975,Surface,Granite Construction Inc,L00039,Granite Construction Company,Construction Sand and Gravel,47.996944,-122.185555,BELLINGHAM
Lake Herman Quarry,400726,Surface,James M  Syar,L01976,Syar Industries Inc,"Crushed, Broken Stone NEC",38.117222,-122.181111,vallejo
Valley Rock Products - Willows Plant,404618,Surface,Shamrock Materials Inc,51441,Valley Rock Products,Construction Sand and Gravel,39.598948,-122.169236,Willows
Kapowsin Quarry,4503224,Surface,Harry W  Hart,L40046,Washington Rock Quarries Inc,"Crushed, Broken Traprock",47.043611,-122.136667,Orting
Valley Rock Products - Red Bluff Plant,404622,Surface,Shamrock Materials Inc,51441,Valley Rock Products ,Construction Sand and Gravel,40.016388,-122.1225,Corning
Valley Rock Products-Orland,401996,Surface,Shamrock Materials Inc,51441,Valley Rock Products ,Construction Sand and Gravel,39.745906,-122.111029,Orland
Felton Quarry,400107,Surface,Granite Construction Inc,L00039,Granite Construction Co,"Crushed, Broken Granite",37.034722,-122.098055,Felton
Cadman (Redmond),4500585,Surface,Heidelberg Cement AG,L13107,Cadman Inc,Construction Sand and Gravel,47.675833,-122.088611,Redmond
 Permanente Cement Plant & Quarry,404075,Facility,Heidelberg Cement AG,L16900,Lehigh Southwest Cement Co.,Cement,37.32,-122.086944,Cupertino
Permanente Rock Plant,405870,Facility,Heidelberg Cement AG,L16900,Lehigh Southwest Cement Company,"Crushed, Broken Stone NEC",37.32,-122.086944,Cupertino
Stevens Creek Quarry,401676,Surface,Richard  Voss,L38771,Stevens Creek Quarry Inc,"Crushed, Broken Stone NEC",37.296944,-122.084444,Santa Clara
Santa Cruz Sand Plant,401782,Surface,Thomas H  Squeri,L01588,Granite Rock Company,Construction Sand and Gravel,36.960277,-122.083611,Santa Cruz
"Clauson Quarry, LLC",4503665,Surface,Steven B  Cowden,L32169,Cowden Inc,"Crushed, Broken Stone NEC",48.971389,-122.077778,Bellingham
Quail Hollow Operation,403177,Surface,Thomas H  Squeri,L01588,Granite Rock Company,Construction Sand and Gravel,37.077777,-122.058333,FELTON
Lake Frances Pit,4503489,Surface,Gary  Merlino; Don  Merlino,95106,"Quality Aggregates, LLC",Construction Sand and Gravel,47.439722,-122.043888,Mapel Valley
Wilkeson Sandstone Quarry LLC,4503361,Surface,Charles C  Nelson; Marilyn M  Nelson,L17227,Wilkeson Sandstone Quarry LLC,"Crushed, Broken Sandstone",47.105278,-122.030833,Wilkeson
Issaquah Pit & Plant,4500652,Surface,Lakeside Industries Inc.,92385,"Lakeside Industries, Inc",Construction Sand and Gravel,47.486111,-122.029722,Issaquah
Getchell Pit,4503110,Surface,Walt  Miles,L06508,Concrete Nor'west,Construction Sand and Gravel,48.074061,-122.021724,Snohomish
Capay Plant Facility,405338,Surface,Granite Construction Inc,L00039,Granite Construction Company,Construction Sand and Gravel,38.715,-122.010277,Esparto
Mt Hood Rock Products,3502382,Surface,Daniel J  Turin; Dennis P  Turin,L10140,Jim Turin & Sons Inc,"Crushed, Broken Traprock",45.382778,-122.008889,Brightwood
MORGAN KAME TERRACE,4503338,Surface,William  Kombol,L14129,Palmer Coking Coal Company LLP,Construction Sand and Gravel,47.319722,-122.006389,Black Diamond
White River Quarry,4503374,Surface,Taiheiyo Cement Corp,L13472,CalPortland Company,"Crushed, Broken Stone NEC",47.193611,-121.999722,Enumclaw
Cadman Black Diamond,4501227,Surface,Heidelberg Cement AG,L17936,Cadman (Black Diamond) Inc,Construction Sand and Gravel,47.286389,-121.993889,Black Diamond
Esparto Plant,405017,Surface,Teichert Inc,L06891,Teichert Aggregates,Construction Sand and Gravel,38.730833,-121.988056,esparto
LEXINGTON QUARRY,400946,Surface,Vulcan Materials Company,L16645,CalMat Co,"Crushed, Broken Stone NEC",37.200555,-121.981388,LOS GATOS
Cadman High Rock Quarry,4501999,Surface,Heidelberg Cement AG,L12266,Cadman (Rock) Inc,"Crushed, Broken Traprock",47.81573,-121.97464,Monroe
Clayton,400159,Surface,Heidelberg Cement AG,64607,"Hanson Aggregates Mid-Pacific, Inc.","Crushed, Broken Stone NEC",37.936666,-121.957222,clayton
Pine Creek Rock,405303,Surface,Basic Resources Inc,L14168,7/11 Materials Inc,Construction Sand and Gravel,39.879016,-121.953253,chico
Enumclaw Pit & Plant,4500609,Surface,Scott D  Corliss,51079,Corliss Resources Inc,Construction Sand and Gravel,47.196389,-121.947222,Mapel Valley
Clayton Plant,400173,Surface,Cemex S A,103149,CEMEX Construction Materials Pacific LLC,"Crushed, Broken Stone NEC",37.93,-121.942222,CLAYTON
Cache Creek Quarry,402763,Surface,Cemex S A,110745,CEMEX Construction Materials LLC,Construction Sand and Gravel,38.686111,-121.941944,Woodland
Menzel Lake Gravel ,4503405,Surface,Robert E  Hild,L16730,Lake Industries LLC,Construction Sand and Gravel,48.066944,-121.939444,Marysville
Granite Falls Quarry,4503424,Surface,Cemex S A,103149,Cemex Construction Materials Pacific LLC,Construction Sand and Gravel,48.117222,-121.931111,Granite Falls
Olive Springs Quarry Inc,402263,Surface,Christine  Bone; Daniel  Harn,L36878,Olive Springs Quarry Inc,"Crushed, Broken Stone NEC",37.054722,-121.925277,Soquel
Sunol Plant,401859,Surface,Heidelberg Cement AG,L36376,Mission Valley Rock,Construction Sand and Gravel,37.575833,-121.880278,sunol
PALMER JUNCTION GRAVEL PIT-KANASKAT PIT,4502825,Surface,Cliff  Schroeder,L12861,"Watson Asphalt Paving Company, Inc.",Construction Sand and Gravel,47.317896,-121.879586,Redmond
Mt Si Quarry Inc,4502189,Surface,Thomas P Weber,L14082,Mt Si Quarry Inc,"Crushed, Broken Stone NEC",47.509595,-121.871235,Bellevue
Sunol Aggregates,402098,Surface,DeSilva Holding Co,120228,Sunol Aggregates,Construction Sand and Gravel,37.569167,-121.863889,SUNOL
Jerico Products Incorporated,405249,Surface,Michael  Lind; Barbara  Lind,L13561,Jerico Products Inc,Misc. Nonmetallic Mnls. NEC,38.088889,-121.8525,Birds landing
Eliot Plant,401891,Surface,Cemex S A,103149,Cemex Construction Materials Pacific LLC,Construction Sand and Gravel,37.6725,-121.831111,Pleasanton
Pleasanton Plant,401924,Surface,Vulcan Materials Company,L16645,CalMat Co,Construction Sand and Gravel,37.676667,-121.826944,PLEASANTON
Snoqualmie S&G dba CalPortland Company,4503136,Surface,Taiheiyo Cement Corp,L11900,CalPortland Company,Construction Sand and Gravel,47.551389,-121.8125,Snoqualmie
Morehead Pit,401712,Surface,Darren  Morehead,L31360,Butte Sand & Gravel,Construction Sand and Gravel,39.154378,-121.804535,Sutter
Lapis Plant,402843,Surface,Cemex S A,103149,Cemex Construction Materials Pacific LLC,Construction Sand and Gravel,36.712222,-121.799444,lapis
South Central Pumice LLC,3503652,Surface,Patrick J  Schaffner,74863,South Central Pumice LLC,Pumice,43.152222,-121.794167,Chemult
Dicalite Minerals Corp,404053,Surface,Dicalite Management Group,L09047,Dicalite Minerals Corp,Diatomaceous Earth (Diatomite),41.017778,-121.777222,Burney
DECKER ISLAND ,405275,Surface,Randy  Jensen; Thomas P.  Farrell Jr.,117786,D.I. Aggregate Management LLC,Construction Sand and Gravel,38.094167,-121.723611,Rio Vista
North Bend,4503547,Surface,Heidelberg Cement AG,L13107,Cadman Inc,"Crushed, Broken Stone NEC",47.464166,-121.705277,North Bend
Kellog Creek Aggregates Inc,403622,Surface,Sherri  Mognaga,108185,Kellog Creek Aggregates Inc,Construction Sand and Gravel,37.86,-121.674444,BYRON
G3 Enterprises Byron Plant,401949,Surface,Robert  Lubeck,119333,"G3 Enterprises, Inc.",Construction Sand and Gravel,37.8625,-121.669167,Byron
Green Crow Rock Products-Arlington Pit,4503565,Surface,Randall S  Johnson,52755,Green Crow Rock Products,Construction Sand and Gravel,48.275,-121.660555,Arilington
A R Wilson Quarry,400119,Surface,Thomas H  Squeri,L01588,Granite Rock Co,"Crushed, Broken Granite",36.897222,-121.634722,Aromas
FRANKLIN SAND PLANT,405084,Surface,John H  Franklin,L33370,Franklin Construction Inc,Construction Sand and Gravel,39.648611,-121.634166,CHICO
Iron Mountain Quarry ,4503175,Surface,James  Burnett; Lawrence P.  Hughes,L12791,Iron Mountain Quarry LLC,"Crushed, Broken Traprock",48.051773,-121.629707,Bothell
NATIVIDAD PLANT,400156,Surface,Lhoist Group,L13416,Lhoist North America of Arizona Inc.,Lime,36.746944,-121.603333,Salinas
BCJ Sand and Rock Inc,405547,Surface,James Bradley  Slender,50978,BCJ Sand and Rock Inc,"Sand, Common",39.637778,-121.588611,Oroville
TRP Table Mountain Plant,404847,Surface,Vulcan Materials Company,L13967,Triangle Rock Products,"Crushed, Broken Stone NEC",39.574166,-121.582777,colusa
WILLIAMS PIT,405354,Surface,Richard  Voss,L38771,Stevens Creek Quarry Inc,Construction Sand and Gravel,36.878333,-121.575833,cupertino
Morris Ravine Mine,405407,Surface,MRLLC  Investors LTD,L17352,Mineral Resources LLC,Construction Sand and Gravel,39.565,-121.547222,oroville
Dantoni Rd,405545,Surface,Noble Debs  Plant,50891,Kino Aggregates Incorporated,Construction Sand and Gravel,39.163137,-121.517035,Marysville
Hallwood Plant,401698,Surface,MDU Resources Group Inc,L14838,Knife River Const.,Construction Sand and Gravel,39.201388,-121.509722,Marysville
S.R.I. MARYSVILLE,405131,Surface,Edward  Mallory; Marlys E  Greenhalgh,L38446,Silica Resources Inc,Construction Sand and Gravel,39.167318,-121.451754,
Western Aggregates LLC,404950,Surface,Eagle Materials Inc,L03322,Western Aggregates LLC,Construction Sand and Gravel,39.185556,-121.450278,Marysville
Tracy Kerlinger Plant,401895,Surface,Cemex S A,103149,Cemex Construction Materials Pacific LLC,Construction Sand and Gravel,37.680555,-121.429166,Tracy
Handley Ranch Quarry,405629,Surface,Granite Construction Inc,L00039,Granite Construction Company,"Crushed, Broken Stone NEC",36.565,-121.427222,Gonzales
STRINGER PIT,405403,Surface,Edward  Mallory; Marlys E  Greenhalgh,L38446,"Silica Resources, Inc.",Construction Sand and Gravel,39.220277,-121.4225,BROWNS VALLEY
PLANT 25,404647,Surface,Donald D  Chapin Jr.,L16318,Don Chapin Company Inc,Construction Sand and Gravel,36.893056,-121.419167,Hollister
FLORIN PLANT,400562,Facility,GEO International,L08178,Industrial Minerals Company,Common Clays NEC,38.493611,-121.396944,SACRAMENTO
Perkins Plant,401680,Surface,Teichert Inc,L06891,Teichert Aggregates,Construction Sand and Gravel,38.545,-121.377778,Sacramento
Sand Merchant,405498,Surface,Saltchuck Resources Inc,50187,Foss Maritime Company,"Sand, Common",37.906111,-121.371111,richmond
Cal Rock Products LLC,400111,Surface,David P  Grimsley,52436,Cal Rock Products LLC,"Crushed, Broken Limestone NEC",36.735556,-121.368333,Hollister
Able Supply Portable,3503566,Surface,Kevin  Peterman,50852,Able Supply LLC,"Crushed, Broken Stone NEC",43.979166,-121.360833,Bend
Vernalis Plant,402792,Surface,Teichert Inc,L06891,Teichert Aggregates,Construction Sand and Gravel,37.621944,-121.359444,tracy
Cake Pit,3502931,Surface,Eric W  Coats,51052,Shevlin Sand & Gravel LLC,Construction Sand and Gravel,44.097636,-121.352175,Bend
Vernalis Plant,405783,Surface,Granite Construction Inc,L00039,Granite Construction Company,"Sand, Industrial NEC",37.602777,-121.346388,Vernalis
Patterson Plant,401906,Surface,Cemex S A,103149,CEMEX Construction Materials Pacific LLC,Construction Sand and Gravel,39.020278,-121.344722,placer
Parks Bar Quarry,404149,Surface,Jens  Karlshoej,L11049,Nordic Industries Inc,"Crushed, Broken Stone NEC",39.221389,-121.337778,Marysville
Bradshaw ,403107,Surface,Granite Construction Inc,L00039,Granite Construction Company,Construction Sand and Gravel,38.548888,-121.334444,Sacramento
Knife River Construction Vernalis Plant,405459,Surface,MDU Resources Group Inc,L17655,Knife River Construction,Construction Sand and Gravel,37.617222,-121.333055,TRACY
Southside Sand And Gravel,405164,Surface,Thomas H  Squeri,L01588,Granite Rock Company,Construction Sand and Gravel,36.796944,-121.331389,Hollister
Glass Mountain Pumice,404165,Surface,Quikrete Holdings Inc.,122411,"Monarch Mountain Minerals & Aggregates, LLC",Pumice,41.644444,-121.3275,Glass Mountain
PORTABLE # 3,3503519,Surface,Ron  Robinson Jr,L15996,4 R Equipment LLC,"Crushed, Broken Stone NEC",44.058611,-121.314166,Alfalfa
Mossdale Plant,405330,Surface,Robert H  Brown Jr,L10246,Brown Sand Inc,Construction Sand and Gravel,37.771388,-121.313888,70
GMcB Lincoln Pits & Mill,400491,Surface,Pacific Coast Building Products Inc,L00969,Gladding McBean,Fire Clay,38.894444,-121.291666,LINCOLN
TRP-Sacramento Plant,404772,Surface,Vulcan Materials Company,L13967,Triangle Rock Products,Construction Sand and Gravel,38.496666,-121.251666,Sacramento
Renewable Resources,405601,Surface,Robert F  Enz,52877,Renewable Resources,Construction Sand and Gravel,36.702222,-121.239722,Paicines
Hidden Canyon Quarry,405653,Surface,Mark  Schipper; Peter  Schipper,L06319,San Benito Supply,Construction Sand and Gravel,36.354167,-121.226944,Greenfield
Sunrock Quarry,3503312,Surface,Randy D  Munsen,L36562,Munsen Paving LLC,"Crushed, Broken Stone NEC",45.6425,-121.210555,The Dalles
Portable Crushing,3500037,Surface,John C  Bryant,L01096,"J Arlie Bryant, Inc.","Crushed, Broken Stone NEC",45.612222,-121.207777,The Dalles
Cinder Butte Rock Products,3503518,Surface,Joy  Foss,L18021,Cinder Butte Rock Products,"Crushed, Broken Stone NEC",44.307222,-121.190277,DESCHUTES
Circle T Ranch Pit,4501882,Surface,Granite Construction Inc,L00039,Granite Construction Company,Construction Sand and Gravel,45.635278,-121.154444,Dallesport
Portable Screening Plant,3503311,Surface,Howard  Houston,L01820,"Hood River Sand & Gravel Redi Mix, Inc.",Construction Sand and Gravel,45.624166,-121.1475,HOOD RIVER
Marks Pit ,401774,Surface,Bernhard H  Marks; Henry W  Marks,L33352,Frank B Marks & Son Inc,Construction Sand and Gravel,37.334167,-121.090278,newman
Mule Shoe Mine,405250,Facility,Charles E  Hinkle,L14070,Buffalo Gypsum Inc,Gypsum,36.354722,-121.020556,King City
Bianchi Pit,405561,Surface,Tim L  Winsor,L40337,Winsor Construction Inc,Construction Sand and Gravel,35.578611,-121.019166,Cambria
Cool Cave Quarry,405503,Surface,Teichert Inc,L06891,Teichert Aggregates,"Crushed, Broken Limestone NEC",38.903333,-121.013611,COOL
Newman Minerals No.1,405845,Surface,John C  Telischak; William  Bunce,123030,Newman Minerals LLC,"Sand, Industrial NEC",38.37,-120.997222,ione
Munn & Perkins Pit  & Mill,402696,Surface,Basic Resources Inc,L00966,Munn & Perkins,Construction Sand and Gravel,37.760833,-120.973333,ESCALON
Avery Pit,4500671,Surface,R B Pamplin Corp,L18224,Pacific Northwest Aggregates Inc,Construction Sand and Gravel,45.657222,-120.966389,Wishram
Jackson Valley Quarry,403761,Surface,Basic Resources Inc,L00966,George Reed Inc,"Crushed, Broken Stone NEC",38.306944,-120.963611,Ione
Irish Hill Portable Plant No. 1,405660,Surface,John C  Telischak; William  Bunce,123030,"Newman Minerals, LLC",Construction Sand and Gravel,38.383888,-120.963333,Ione
Ione Minerals,405532,Surface,David E  Jenkins,50674,Ione Minerals,Common Clays NEC,38.334722,-120.948055,Ione
Blockhouse Butte Mine,4502011,Surface,Martin  Ruiter,134294,"Martin's Feed, Inc.",Construction Sand and Gravel,45.851111,-120.946667,"Goldendale, WA"
GREENHORN PIT & MILL,403138,Surface,Hansen Brothers Enterprises,L01634,Hansen Brothers Enterprises,Construction Sand and Gravel,39.205833,-120.93,grass valley
Specialty Granules (Ione)  LLC,405533,Surface,Specialty Granules Inc,50626,Specialty Granules (Ione) LLC,Construction Sand and Gravel,38.343611,-120.918611,ione
Plymouth Sand & Gravel,405163,Surface,Gordon  Vicini,L37305,Plymouth Sand & Gravel,Construction Sand and Gravel,38.449722,-120.898888,plymouth
TRP-Los Banos Plant,401843,Surface,Vulcan Materials Company,L13967,Triangle Rock Products,Construction Sand and Gravel,37.0275,-120.8925,Los Banos
PRINEVILLE PIT #1,3503648,Surface,Mark  Stafford,74066,ROCK PRODUCTS MFG INC,"Crushed, Broken Stone NEC",44.322778,-120.871944,PRINEVILLE
Whale Rock Quarry,404635,Surface,Jon P Negranti,L36634,Negranti & Sons,"Crushed, Broken Stone NEC",35.452436,-120.861962,Cayucos
Toppenish Facility,4500631,Surface,CRH PLC,L00029,Central Pre-Mix Concrete Co,Construction Sand and Gravel,46.390278,-120.848611,Toppenish
Sixteen To One Mine,401299,Underground,Michael M Miller,L09340,Original Sixteen To One Mine Inc,Gold Ore,39.465556,-120.845556,Allegheny
HOGAN QUARRY,404819,Surface,Estate of Robert Jones,L12863,Foothill Materials,"Crushed, Broken Stone NEC",38.147222,-120.826944,VALLEY SPRINGS
LINCOLN MINE PROJECT,405038,Underground,Sutter Gold Mining Inc,L15671,Sutter Gold Mining Company,Gold Ore,38.411389,-120.816944,Amador City
Plumbago Mine,403065,Underground,Michael M Miller,L09340,"Original Sixteen to One Mine, Inc.",Gold Ore,39.451111,-120.812778,Alleghany
Santa Margarita Quarry,401616,Surface,Heidelberg Cement AG,64607,"Hanson Aggregates Mid-Pacific, Inc.",Construction Sand and Gravel,35.861667,-120.810278,Santa Margarita
Thomes Creek Rock Co Inc,401977,Surface,Mary  Coulter; Joseph  Coulter,L08950,Thomes Creek Rock Company Inc,Construction Sand and Gravel,37.443787,-120.789877,
Lorena Butte,4503057,Surface,Edgar  Holbrook,L11125,Bishop Red Rock Inc,"Crushed, Broken Stone NEC",45.790277,-120.781666,Goldendale
Bradley Plant,405572,Surface,Taiheiyo Cement Corp,L11900,Calportland Construction,Construction Sand and Gravel,35.863055,-120.780555,Bradley
Portable Crusher B,4503376,Surface,David  Grainger,L11920,Aggregates West Inc,Construction Sand and Gravel,47.751111,-120.740277,Everson
Alderbrook Quarry ,4503387,Surface,John R  Moerke,L16693,"Alderbrook Quarry, Inc.","Crushed, Broken Stone NEC",47.751111,-120.740277,Chehalis
Van Buren Pit,4503204,Surface,David  Grainger,L11920,Aggregates West Inc,Construction Sand and Gravel,47.751074,-120.740139,Everson
Lime Mountain,400099,Surface,Bonnie L  Wahl,L35621,Lime Mountain Company,"Crushed, Broken Limestone NEC",35.554167,-120.683889,Paso Robles
San Andreas Plant,400539,Surface,Heidelberg Cement AG,L16937,Calaveras Materials Inc,"Crushed, Broken Stone NEC",38.179166,-120.6825,SAN ANDREAS
7/11 Materials Inc,401943,Surface,Basic Resources Inc,L14168,7/11 Materials,Construction Sand and Gravel,37.635555,-120.64,Waterford
Rocky Canyon Plant,404634,Surface,Taiheiyo Cement Corp,L11900,Calportland Construction,Construction Sand and Gravel,35.472085,-120.611108,Atascadero
Ellensburg Pit,4500994,Surface,James O  Hutchinson,L01856,Ellensburg Cement Products Inc,Construction Sand and Gravel,47.024167,-120.606389,ELLENSBURG
Gordon Sand Co,401787,Surface,George E  Gordon III,L33755,Gordon Sand Co,Construction Sand and Gravel,34.960316,-120.603772,Guadalupe
Portable Unit #1,4502508,Surface,James O  Hutchinson,L01856,Ellensburg Cement Products Inc,Construction Sand and Gravel,47.013333,-120.599166,Ellensburg
WINTON PIT & MILL,405127,Surface,Teichert Inc,L10703,Santa Fe Aggregates Inc,Construction Sand and Gravel,37.459722,-120.596944,"Winton, CA"
Crater Sand & Gravel Inc,3500541,Surface,Donald  Savage,L32191,Crater Sand & Gravel Inc,Construction Sand and Gravel,43.804133,-120.554201,Central Point
Alsea Quarries,3500454,Surface,George R  Foster; Tracy L  Foster,109346,Alsea Quarries 1 LLC,"Crushed, Broken Traprock",43.804166,-120.554166,Alsea
Harrington Shale Pit,3502979,Surface,Thomas L  Harrington,L34075,Harrington Rock Products,"Crushed, Broken Stone NEC",43.804166,-120.554166,lebanon
Diblee Pit,3503479,Surface,Craig L  Smith,L16409,B C X Inc,Construction Sand and Gravel,43.804166,-120.554166,Rainier
Mid Valley Gravel Co-Portable Crusher,3503498,Surface,Barbara  Ellis,L36256,Mid-Valley Gravel Company,"Crushed, Broken Stone NEC",43.804166,-120.554166,Philomath
Table Mountain Plant & Quarry ,403126,Surface,Basic Resources Inc,L00966,George Reed Inc,"Crushed, Broken Stone NEC",37.893611,-120.513055,Jamestown
River Rock Pit & Mill,402841,Surface,Heidelberg Cement AG,L16937,Calaveras Materials Inc,Construction Sand and Gravel,37.347222,-120.507777,Merced
Carson Hill Rock Products,404792,Surface,Mark  Sutton; Brad  Sutton,L17213,Carson Hill Rock Products,"Crushed, Broken Stone NEC",38.025555,-120.505555,Angels Camp
Imerys Lompoc Plant,402848,Surface,Imerys S A,L12218,"Imerys Minerals California, Inc.",Diatomaceous Earth (Diatomite),34.608888,-120.464166,Lompoc
SIERRA ROCK PRODUCTS,403489,Surface,James D  Hatler,L04876,Sierra Rock Products,"Crushed, Broken Stone NEC",37.9275,-120.441111,JAMESTOWN
BLUE MOUNTAIN MINERALS,404716,Surface,Portola Minerals Company,L13595,Blue Mountain Minerals,"Crushed, Broken Limestone NEC",38.069444,-120.423055,columbia
Acin Ranch,405210,Surface,Mike  Connors; Janie  Connors,L38344,Sepulveda Building Materials Lompoc Inc,Dimension Stone NEC,34.620277,-120.393055,Lompoc
Pinkham Rock Pit,4503654,Surface,Scott  Parker; Del  Matthews,109427,Wapenish Sand and Gravel,Construction Sand and Gravel,46.430556,-120.376111,Selah
Coalinga Pit,401879,Surface,Granite Construction Inc,L00039,Granite Construction Company,Construction Sand and Gravel,36.165833,-120.358056,Coalinga
Ram Ridge ,4503378,Surface,Lloyd L Palm,L35677,Lloyd Palm Construction,Construction Sand and Gravel,47.476388,-120.303333,Wenatchee
CWC Portable Crusher,4503253,Surface,CRH PLC,L00029,Central Washington Concrete,Construction Sand and Gravel,47.405277,-120.299722,Yakima
GAREY ROCK PLANT,403031,Surface,Taiheiyo Cement Corp,L11900,CALPORTLAND CONSTRUCTION,Construction Sand and Gravel,34.893611,-120.299444,Santa Maria
Sisquoc Rock Plant,401959,Surface,Heidelberg Cement AG,64607,"Hanson Aggregates Mid-Pacific, Inc.",Construction Sand and Gravel,34.868055,-120.28,Santa Maria
Avenal Asphalt & Aggregate,404949,Surface,W Jaxon  Baker,L16516,"Papich Construction Company, Inc.",Construction Sand and Gravel,36.073611,-120.229444,Coalinga
Navajo Rock & Block,404240,Surface,Albert A Lewis,L36624,Navajo Rock & Block,Construction Sand and Gravel,35.413888,-120.205,Santa Margarita
Le Grand,405371,Surface,W Jaxon  Baker,L16516,Le Grand Asphalt,Construction Sand and Gravel,37.251111,-120.188056,LEGRAND
Santa Maria Stone/Colson Quarry,402382,Surface,Paul J  Antolini,134655,G Antolini & Son LLC,Dimension Stone NEC,34.938657,-120.185847,Santa Maria
Solvang Plant,401710,Surface,R G  Petersen,L01525,Buellflat Rock Co Inc,Construction Sand and Gravel,34.594444,-120.154166,Solvang
Rock Island Plant,4503042,Surface,CRH PLC,L00029,Central Washington Concrete,Construction Sand and Gravel,47.372222,-120.1375,Rock Island
O L Luther Company Incorporated,4501222,Surface,Arnold  Luther,L01070,O L Luther Company Inc,Construction Sand and Gravel,46.323889,-120.124444,Yakima
Bee Rock Quarry,404704,Surface,Granite Construction Inc,L00039,Granite Construction Company,"Crushed, Broken Limestone NEC",34.489739,-120.101184,Santa Barbara
Yosemite Slate Quarry ,400357,Surface,David R  Butler,123570,Mariposa Yosemite Slate Quarry,"Crushed, Broken Slate",37.483611,-120.020833,mariposa
Cegnar Company,4503394,Surface,Bob  Cegnar,L16534,Cegnar Company,"Crushed, Broken Stone NEC",46.397222,-119.988611,Moses Lake
Mockingbird Mine,405781,Underground,John  Emmett; Lucretia  Emmett,100045,Emmett's Excavation Inc,Gold Ore,37.553333,-119.965556,CLOVIS
Ellwood Pit,403698,Surface,Vic L  Batastini; Ed A  Batastini,L38224,Santa Barbara Sand & Top Soil,"Sand, Industrial NEC",34.443611,-119.896666,Goleta
Kenite Quarry,4503480,Surface,Imerys S A,L12218,Imerys Minerals California,Diatomaceous Earth (Diatomite),47.08,-119.875833,George
Raymond Quarry Plant #1 (Sierra),400232,Surface,Patrick  Alexander,L00067,Cold Spring Granite Company,Dimension Stone NEC,37.220278,-119.872222,Raymond
Mesquite,404614,Surface,New Gold Inc,51937,"Western Mesquite Mines, Inc.",Gold Ore,36.838333,-119.862222,Brawley
Kenite Plants 1 & 2,4500939,Surface,Imerys S A,L12218,Imerys Minerals California,Misc. Nonmetallic Mnls. NEC,47.241388,-119.837777,Ephrata
River Rock Plant,401711,Surface,Vulcan Materials Company,L16645,CalMat Co,Construction Sand and Gravel,36.902778,-119.770833,Fresno
H M Holloway Incorporated,400929,Surface,Estate of Dale Knox; Equity Directions Inc,L11941,H M Holloway Inc,Gypsum,35.633611,-119.755,Lost Hills
Bing Materials,2600430,Surface,Bing Construction Company,L31012,Bing Materials,Construction Sand and Gravel,38.895556,-119.749167,GARDNERVILLE
Mustang Facility,2602089,Surface,Kevin L  Robertson; Craig D  Holt,75383,Sierra Nevada Construction Inc.,Construction Sand and Gravel,39.5325,-119.737222,"Reno, Nv"
Rockfield Plant,401897,Surface,Cemex S A,103149,CEMEX Construction Materials Pacific LLC,Construction Sand and Gravel,36.930833,-119.735278,Herndon
SPANISH SPRINGS PIT #6,2600803,Surface,Martin Marietta Materials Inc,L16197,"Martin Marietta Materials, Inc.",Construction Sand and Gravel,39.681944,-119.721111,sparks
Rilite Aggregate ,2600434,Surface,Rilite Incorporated,L37799,Rilite Aggregate ,Construction Sand and Gravel,39.416388,-119.713611,RENO
Coyote Springs Sand & Gravel,3500965,Surface,Cemex S A,51582,Pacific Rock Products LLC,Construction Sand and Gravel,45.844444,-119.685,Boardman
ADAMS CLAIM,2600668,Surface,Art  Wilson,L00340,Art Wilson Company,Gypsum,39.231944,-119.684722,Moundhouse
DONOVAN PIT,2602317,Surface,Lynda M  Donovan,L15077,R T Donovan Company Inc,Construction Sand and Gravel,39.685485,-119.684681,sparks
CEMEX - Sierra Stone Quarry,2602082,Surface,Cemex S A,103149,CEMEX Construction Materials Pacific LLC,Construction Sand and Gravel,39.506944,-119.645833,sparks
Spring Valley Mine,2602470,Surface,Hau Sun  Ho,50494,Geo Nevada Inc,Gold Ore,39.24,-119.637777,MOUNDHOUSE
DAYTON MATERIALS ,2602412,Surface,Shane N  Davis; John W  Davis,126273,3D Concrete,Construction Sand and Gravel,39.231111,-119.585277,Dayton
Portable Power Screen,4503161,Surface,Nick  Tommer,L12846,Tommer Construction Co Inc,Construction Sand and Gravel,47.338888,-119.533611,Ephrata
Raymond Quarry Plant #2 Academy,400231,Surface,Patrick  Alexander,L00067,Cold Spring Granite Company,Dimension Stone NEC,36.893611,-119.528611,Clovis
Basalite Dayton,2601006,Surface,Pacific Coast Building Products Inc,L03824,"Basalite Concrete Products, LLC","Crushed, Broken Stone NEC",39.340556,-119.526667,Carson City
Lockwood Quarry,2602204,Surface,Granite Construction Inc,L00039,Granite Construction Company,Construction Sand and Gravel,39.568055,-119.5225,sparks
Tonasket Quarry,4500191,Surface,MacDonald Development Corporation,L13760,Pacific Calcium Inc,"Crushed, Broken Limestone NEC",48.7975,-119.515,Tonasket
Cedarapids MVP450 Cone S/N49609,2602587,Surface,Loren E  Hunewill,L02451,H.E. Hunewill Construction Co. Inc.,"Sand, Common",38.761111,-119.4875,Winnemucca
Cedarapids 3042 Jaw Crusher S/N 289-05-2,2602589,Surface,Loren E  Hunewill,L02451,H.E. Hunewill Construction Co. Inc.,"Sand, Common",38.761111,-119.4875,Winnemucca
Sanger Plant,401937,Surface,Vulcan Materials Company,L16645,CalMat Co,Construction Sand and Gravel,36.727778,-119.483056,Sanger
Clark Mill ,2600677,Surface,EP Management Corporation,80925,"EP Minerals, LLC",Diatomaceous Earth (Diatomite),39.564167,-119.480833,SPARKS
GPS River Rock Products Co,404898,Surface,Charles E  Beard,51393,GPS River Rock Products Co,Construction Sand and Gravel,34.833333,-119.470833,Ventucopa
Wauconda Quarry,4503104,Surface,Northwest Carbonates; Bleeck Management,L09028,Columbia River Carbonates,"Crushed, Broken Limestone NEC",48.647777,-119.464444,Okanagan
Ventucopa Quarry,405481,Surface,Mike  Lima,L18194,H Lima Company Inc,Gypsum,34.819166,-119.453333,Ventucopa
Hiawatha Wash Plant,4503627,Surface,Pamp  Maiers,79103,AAA Ready-Mix Inc II,Construction Sand and Gravel,47.119722,-119.449166,Moses Lake
Rock Solid Sand & Gravel LLC,3503452,Surface,Wade  Aylett; Debora L  Aylett,114905,Rock Solid Sand & Gravel,Construction Sand and Gravel,45.804722,-119.428333,Hermiston
Portable Crusher #4,4503490,Surface,Pamp  Maiers,L12396,North Central Construction Inc.,Construction Sand and Gravel,46.227777,-119.389166,Benton
JONES-SCOTT CO,3500502,Surface,Rhonda  Schroeder,L04514,Jones-Scott Company,Construction Sand and Gravel,45.908611,-119.303333,Pendleton
Hanford Pit,4503498,Surface,Eucon Corp,50325,American Rock Products Inc,"Crushed, Broken Stone NEC",46.316486,-119.293057,Richland
CEMEX - Paiute Pit,2600789,Surface,Cemex S A,103149,CEMEX Construction Materials Pacific LLC,Construction Sand and Gravel,39.691388,-119.278055,Reno
Fernley Plant,2600816,Surface,Imerys S A,L12218,Imerys Minerals California Incorporated,Misc. Nonmetallic Mnls. NEC,39.610282,-119.255148,Fernley
Nevada Cement Co Cement Plant,2600015,Facility,Eagle Materials Inc,L01086,Nevada Cement Company,Cement,39.607968,-119.251835,FERNLEY
Pasco Facility,4500730,Surface,CRH PLC,L00029,Central Pre-Mix Concrete Co.,Construction Sand and Gravel,46.271944,-119.250277,Pasco
Sigma Rock,405727,Surface,Jason  Papich; April  Papich,125554,Papich Construction Company Inc,Construction Sand and Gravel,36.553611,-119.246667,Orosi
Portable Crusher #1,4502994,Surface,Pamp  Maiers,L12396,North Central Construction ,"Crushed, Broken Stone NEC",47.131666,-119.211111,Moses Lake
Portable Crusher #2,4503024,Surface,Pamp  Maiers,L12396,North Central Construction ,Construction Sand and Gravel,47.131666,-119.211111,Moses Lake
San Emidio Plant,401800,Surface,Vulcan Materials Company,L16645,CalMat Co,Construction Sand and Gravel,35.042777,-119.179444,Mettler
Rocks Road Pit,2602591,Surface,Jim  Chico,70083,Desert Engineering,"Sand, Common",38.939444,-119.1325,Yerington
Pumpkin Hollow East Underground,2602711,Underground,Nevada Copper Corporation,121850,Nevada Copper Inc,Copper Ore NEC,38.939444,-119.116389,Yerington
Kaweah River Rock ,401832,Surface,Teichert Inc,L10703,Santa Fe Aggregates Inc,Construction Sand and Gravel,36.396944,-119.060833,Woodlake
Santa Paula Materials,405798,Surface,Mile  Grbic,120748,Santa Paula Materials,Construction Sand and Gravel,34.363611,-119.053056,Santa Paula
Reesco Portable,2602629,Surface,Bart  Hiatt,L02951,A & K Earth Movers Inc,Construction Sand and Gravel,39.538611,-119.045833,Fallon
Edison Sand Pit,401756,Surface,Irene  Bernal,L16129,Edison Sand Company,Construction Sand and Gravel,35.373333,-119.018611,Bakersfield
LEMONCOVE GRANITE,405153,Surface,Thomas M  Cairns,L35558,Lemoncove Granite ,"Crushed, Broken Granite",36.381944,-119.008333,Lemoncove
Frazier Park,400555,Surface,Trinity Industries Inc,129036,"LWFP, LLC","Clay, Ceramic, Refractory Mnls.",34.816389,-119.006389,Frazier Park
Buckhorn Mine,4503615,Underground,Kinross Gold Corp,75104,Crown Resources-Kettle River Operations,Gold Ore,48.943889,-118.974722,Chesaw
Fernley Operations,2601950,Surface,EP Management Corporation,80925,"EP Minerals, LLC",Diatomaceous Earth (Diatomite),39.829444,-118.971388,Fernley
Deer Creek Quarry,404289,Surface,W Jaxon  Baker,L16516,Deer Creek Rock Company Inc.,Construction Sand and Gravel,36.007222,-118.952778,Porterville
Decomposed Granite Pit (LG),405694,Surface,Mitchell  Brown,L15270,Porterville Rock and Recycle Inc,"Crushed, Broken Granite",36.10927,-118.935193,Porterville
Tule River/Success Dam,405313,Surface,Mitchell  Brown,L15270,Porterville Rock and Recycle Inc,Construction Sand and Gravel,36.050105,-118.932901,TULARE
Wauconda Quarry,4503337,Surface,Roger L  Sawyer,L14177,Sawyer & Sawyer Inc,"Crushed, Broken Limestone NEC",48.763611,-118.921388,Okanogan
Grimes Rock Inc,405432,Surface,Russell  Cochran,L17323,Grimes Rock Inc,Construction Sand and Gravel,34.334722,-118.909444,Fillmore
Edmonston Rock Plant ,403447,Surface,Tom  Foss,L03591,Griffith Company,Construction Sand and Gravel,34.939166,-118.903055,Lebec
Wayne J. Sand & Gravel Inc.,401915,Surface,Brett A  Jones,L40063,Wayne J. Sand & Gravel Inc.,Construction Sand and Gravel,34.326666,-118.886111,moorpark
Moorpark Quarry,404140,Surface,Cemex S A,51070,CEMEX Construction Materials LP,Construction Sand and Gravel,34.335277,-118.879166,Moorpark
Denton-Rawhide Mine,2601030,Surface,Rawhide Acquisition Holding LLC,L11157,Rawhide Mining LLC,Gold Ore,39.258056,-118.786389,Fallon
Top Gun Pit,2601045,Surface,Thurman  Hiskett; Trula  Hiskett,116565,Hiskett & Sons LLC,Construction Sand and Gravel,39.473889,-118.777222,Fallon
Portable Plant #1,2600687,Surface,Churchill County-NV,L31805,Churchill County Road Department,Construction Sand and Gravel,39.479166,-118.773055,FALLON
Borealis Mine,2601655,Surface,Gryphon Gold Corporation; Waterton Global Value L P,127133,"Borealis Mining Company, LLC",Gold Ore,38.388056,-118.77,Hawthorne
Lebec Cement Plant ,400213,Facility,Vicat S A,L10040,National Cement Company Of California Inc,Cement,34.820833,-118.748889,lebec
Arvin Pit,404360,Surface,Granite Construction Inc,L00039,Granite Construction Company,Construction Sand and Gravel,35.209444,-118.744444,Arvin
Ashdown Mine,2600578,Underground,Win-Eldrich Mines Ltd; Golden Phoenix Minerals Inc,85884,Ashdown Project LLC,Molybdenum Ore,41.858611,-118.727778,Denio
Canyon Rock Plant,401888,Surface,Celine L  Gillibrand,L01040,"Gillibrand Industrial Sands, Inc.","Sand, Industrial NEC",34.3325,-118.716944,Simi Valley
Tapo Rock & Sand,404212,Surface,William C  Brooks,L10778,Tapo Rock & Sand,Construction Sand and Gravel,34.327532,-118.707429,Simi Valley
Salt Flat,2600347,Surface,John R  Huckaby,L34402,Huck Salt Company,Salt,39.473611,-118.684167,"Fallon, NV"
Kettle River Mill Site,4503283,Facility,Kinross Gold Corp,51754,Kinross Gold Corp Kettle River Operations,Gold Ore,48.666666,-118.616944,Republic
Portable #1,4503448,Surface,Guy  Copenhaver; Matt  Copenhaver,L17536,Copenhaver Construction Inc,Construction Sand and Gravel,47.758333,-118.496388,CRESTON
Colado Mine,2600672,Surface,EP Management Corporation,80925,"EP Minerals, LLC",Diatomaceous Earth (Diatomite),40.179444,-118.473611,LOVELOCK
Rochester Mine,2601941,Surface,"Coeur Mining, Inc.",L08263,"Coeur Rochester, Inc.",Silver Ore,40.179444,-118.473611,Lovelock
Angelle Aggregates LLC,1601337,Surface,Angelle Concrete Group LLC,117185,"Angelle Aggregates, LLC",Construction Sand and Gravel,34.05,-118.4675,Clinton
Tehachapi Plant,400196,Facility,Heidelberg Cement AG,L16900,Lehigh Southwest Cement,Cement,35.125278,-118.397778,Tahachapi
Rasmussen Soledad Rock Quarry,400247,Surface,Taylor  Rasmussen,88624,Rasmussen R&R Inc.,Construction Sand and Gravel,34.435277,-118.389722,Canyon Country
Sun Valley Plant,401736,Surface,Vulcan Materials Company,L16645,CalMat Co,Construction Sand and Gravel,34.228611,-118.379444,Los Angeles
Colado Plant,2600680,Surface,EP Management Corporation,80925,"EP Minerals, LLC",Diatomaceous Earth (Diatomite),40.240833,-118.359722,Lovelock
PEBBLY BEACH QUARRY,400081,Surface,MDU Resources Group Inc,L17618,Connolly-Pacific Company,"Crushed, Broken Stone NEC",33.339782,-118.314233,Catalina Island
Mojave Plant & Quarry,400036,Facility,Taiheiyo Cement Corp,L11900,Calportland,Cement,35.038333,-118.294722,Mojave
Fencemaker,2601650,Underground,First Liberty Power Corp,106785,Stockpile Reserves LLC,Antimony Ore,40.399167,-118.28,Pershing
Gypsum Mountain,2602758,Surface,Paul R  Gianoli,131213,Silver State Minerals LLC,Gypsum,40.104167,-118.221667,Lovelock
Grefco Mine & Mill ,2600125,Surface,Dicalite Management Group,L15385,Grefco Minerals Inc,Misc. Nonmetallic Mnls. NEC,37.995556,-118.212222,Coaldale
Florida Canyon Mine,2601947,Surface,Jipangu International,L09380,Florida Canyon Mining Inc,Gold Ore,40.768056,-118.159167,Imlay
Acton Clay Quarries,405169,Surface,North Star Minerals Incorporated,L12047,North Star Minerals Inc,"Clay, Ceramic, Refractory Mnls.",34.460277,-118.157777,Acton
Canebrake Pit,402999,Surface,Donna  Ladd; Leroy  Ladd,130574,Ladd Ready Mix LLC,Construction Sand and Gravel,35.733888,-118.1275,Lake Isabella
Hycroft Mine,2601962,Surface,Allied Nevada Gold Corp,L09449,Hycroft Resources & Development Inc,Gold Ore,40.953889,-118.126389,Winnemucca
Kelly Hill Quarry,4503555,Surface,James F  Bennett,51060,White Stone Calcium Inc,"Crushed, Broken Limestone NEC",48.788611,-118.068611,Kettle Falls
Owens Lake Mine,402834,Surface,Rio Tinto Group,L13075,U S Borax Inc ,Trona,36.610556,-118.065556,Lone Pine
"R. D. MAC, Inc.",3500507,Surface,Jerome J  Collman,L38034,"R. D. MAC, Inc.",Construction Sand and Gravel,45.305556,-118.044167,LaGrande
Littlerock Quarry,404802,Surface,Robar Enterprises Inc,L08509,Hi-Grade Materials Co,Construction Sand and Gravel,34.542777,-118.018888,Littlerock
Hollister Mine,2602535,Underground,Waterton Global Mining Co LLC,128374,"Waterton Global Mining Company, LLC",Gold Ore,41.051667,-118.018611,Denio
Hwy 95 Pit,2602643,Surface,Norman D  Sweeney,L17446,Norman D Sweeney Construction,"Sand, Common",41.066389,-118.018611,WINNEMUCCA
Palmdale Plant,402125,Surface,Vulcan Materials Company,L16645,CalMat Co,Construction Sand and Gravel,34.510278,-118.013056,Littlerock
Holliday Rock-Little Rock Plant ,404930,Surface,Penny J  Holliday,L01650,Holliday Rock Company Inc,Construction Sand and Gravel,34.510277,-118.013055,Littlerock
PECK ROAD GRAVEL PIT,405309,Surface,Steve  Bubalo,L38124,S L S & N Inc,Construction Sand and Gravel,34.111111,-118.003611,Monrovia
Littlerock Plant,401690,Surface,Penny J  Holliday,L01650,Holliday Rock Company Inc,Construction Sand and Gravel,34.54281,-118.002329,Littlerock
Palmdale ,404803,Surface,Robertson's Ready Mix Inc; Mitsubishi Corp,L14361,Robertson's,Construction Sand and Gravel,34.576111,-117.995833,Palmdale
Columbus Project,2601674,Surface,Ireland Inc,L17103,Columbus SM LLC,Rare Earths Ore,38.119167,-117.993611,Coaldale
Durbin Plant,401734,Surface,Vulcan Materials Company,L16645,CalMat Co,Construction Sand and Gravel,34.091944,-117.988055,Irwindale
IRWINDALE PLANT,401763,Surface,Colas S A,L17072,United Rock Products Corp,Construction Sand and Gravel,34.118333,-117.980555,Irwindale
Mojave Pit,404665,Surface,Penny J  Holliday,L01650,Holliday Rock Company Inc,Construction Sand and Gravel,34.963056,-117.977778,Mojave
Irwindale Rock Plant,401838,Surface,Heidelberg Cement AG,L16389,Hanson Aggregates Pacific Southwest Inc,Construction Sand and Gravel,34.111111,-117.973611,Irwindale
Littlerock,404926,Surface,Granite Construction Inc,L00039,Granite Construction Company,Construction Sand and Gravel,34.516944,-117.96,Palmdale
SUNRISE GOLD PLACER MINE,2602635,Surface,Donald E  Siecke,87884,Sunrise Minerals,Gold Ore,40.731944,-117.949722,Winnemucca
North Powder Quarry Crusher #1,3503345,Surface,Dan E  Hooker,L03759,Harney Rock & Paving Company,"Crushed, Broken Stone NEC",44.911666,-117.938888,Haines
Dolomite Mine,400226,Surface,Federal White Cement Ltd,L12168,F W Aggregate Inc,"Crushed, Broken Marble",36.5575,-117.9375,Lone Pine
Reliance Plant,403200,Surface,Vulcan Materials Company,L16645,CalMat Co,Construction Sand and Gravel,34.133611,-117.931667,Irwindale
Azusa Quarry ,401696,Surface,Cemex S A,103149,"Cemex Construction Materials Pacific, LLC",Construction Sand and Gravel,34.115278,-117.930556,Azusa
Global Pumice Mine - Olancha,404783,Surface,Garrett  Petelski; Thomas  Hrubik,131593,"Global Pumice, LLC",Construction Sand and Gravel,36.223333,-117.927222,Olancha
Azusa Rock,404674,Surface,Vulcan Materials Company,L16645,CalMat Co,"Crushed, Broken Stone NEC",34.156111,-117.924722,irwindale
Red Hill,403623,Surface,Cemex S A,51070,Cemex Construction Materials LP,Construction Sand and Gravel,35.935556,-117.9075,Little Lake
Sprague Quarry,4503373,Surface,Eucon Corp,L15752,Mainline Rock & Ballast Inc,"Crushed, Broken Stone NEC",47.332778,-117.891389,Sprague
Big Rock Creek,405778,Surface,Vulcan Materials Company,L16645,CalMat Co,Construction Sand and Gravel,34.509444,-117.853333,Pear Blossom
Portable Crusher,4503263,Surface,Thomas J  Konen,L12217,Konen Rock Crushing Inc,Construction Sand and Gravel,46.232777,-117.851666,Dayton
Maricopa Plant,402638,Surface,Nestle S A,50705,Nestle Purina PetCare Company,"Crushed, Broken Stone NEC",33.733611,-117.798611,Maricopa
Hallwood Plant,401974,Surface,Teichert Inc,L06891,Teichert Aggregates,Construction Sand and Gravel,33.738888,-117.766666,Marysville
MIN-AD Inc,2601595,Facility,Secret Pass Gold Inc,L17747,MIN-AD Inc,"Crushed, Broken Limestone NEC",40.971111,-117.758056,Winnemucca
Gehrke Pit,4500001,Surface,Dale B  Borgford,119251,Allied Minerals Inc,"Crushed, Broken Limestone NEC",48.131111,-117.744167,"Springdale, WA"
Lane Mtn Silica Quarry & Mill,4500983,Surface,Hemphill Brothers Inc,L07954,Lane Mt. Silica Co.,Ground Silica,48.131111,-117.744167,"VALLEY, WA"
CEMEX - HWY 95,200722,Surface,Cemex S A,93625,CEMEX Construction Materials South LLC,Construction Sand and Gravel,40.972777,-117.735833,Yuma
Kolberg 1822PH Washplant S/N406286,2602638,Surface,Loren E  Hunewill,L02451,H E Hunewill Construction Co Inc,"Sand, Common",40.900833,-117.733889,Winnemucca
Sexton Mine ,2600734,Surface,David  Sexton,79884,Nutritional Additives,Dimension Limestone,40.851389,-117.7275,Winnemucca
Mineral Ridge Mine,2602302,Surface,Pete  Hawley; Chris  Zerga,111425,"Mineral Ridge Gold, LLC",Gold Ore,37.793333,-117.719444,Silver Peak
Chewelah Plant,4503529,Surface,James F  Bennett,51060,Whitestone Calcium Inc,Dimension Marble,48.252778,-117.715278,Chewelah
Boron Operations,400743,Surface,Rio Tinto Group,L13075,U S Borax Inc,Boron Minerals,35.022222,-117.703333,Boron
Upland Pit and Mill,401808,Surface,Penny J  Holliday,L01650,Holliday Rock Company Inc,Construction Sand and Gravel,34.106868,-117.69493,Upland
Alum Pit,2602599,Surface,Jerry  Tyler; Paul H  Sturgeon,127013,"Heart of Nature, LLC",Potassium Compounds,37.768055,-117.649444,Silver Peak
Premier Magnesia LLC,2600002,Facility,John  Gehret,L18161,Premier Magnesia LLC,Magnesite,38.885833,-117.643611,Gabbs
Campus Plant ,401987,Surface,Penny J  Holliday,L01650,Holliday Rock Company Inc,Construction Sand and Gravel,34.136667,-117.636389,Upland
Taft Production Company & Mines,402964,Surface,Oil Dri Corporation Of America,50924,Taft Production Company,Common Clays NEC,34.136667,-117.636389,Taft
Hi Desert Rustic Stone,404965,Surface,John D  Chesney; Tommy J  Jaworsky,L13193,Sydney Peak Stone Inc,Dimension Slate,35.33,-117.636389,Red Mountain
Sydney Peak Stone,404483,Surface,John D  Chesney; Tommy J  Jaworsky,L13193,"Sydney Peak Stone, Inc.",Dimension Stone NEC,35.37,-117.63,Red Mountain
Airway Sand & Gravel,4503384,Surface,Eucon Corp,L06053,Spokane Rock Products Inc,Construction Sand and Gravel,47.635556,-117.603889,Spokane
Orange County Operation,402801,Surface,Celine L  Gillibrand,126913,Lapeyre Industrial Sands Inc,"Sand, Industrial NEC",33.513888,-117.580555,San Juan Capistrano
Ranch Rock Capo,405444,Surface,Nicholas J  Tonkinson,119858,Ranch Rock Corporation,Construction Sand and Gravel,33.884722,-117.567778,CORONA
Day Creek Spreading Grounds,405661,Surface,Jeff  Carpenter,68263,Jeff Carpenter Inc,"Sand, Industrial NEC",34.108056,-117.536389,Rancho Cucamonga
All American Aggregates,403646,Surface,Mark  Luer,L30271,All American Aggregates,Construction Sand and Gravel,33.868333,-117.524722,Corona
Corona Plant,405095,Surface,Vulcan Materials Company,L16645,CalMat Co,Construction Sand and Gravel,33.86,-117.521666,Corona
3M Corona Plant,400191,Surface,Minnesota Mining & Manufacturing Company,L00273,Minnesota Mining & Manufacturing Company,"Crushed, Broken Stone NEC",33.848333,-117.511944,Corona
3M,405075,Surface,Frank  Smith,L10813,FST Sand & Gravel Inc,Construction Sand and Gravel,33.848333,-117.511944,Corona
#1 PORTABLE,405308,Surface,Antonio  Paredes,L15041,Rock Structures Construction,"Crushed, Broken Stone NEC",33.848333,-117.511944,Corona
Eagle Valley Quarry,404758,Surface,Heidelberg Cement AG,L16389,Hanson Aggregates Pacific Southwest Inc,Construction Sand and Gravel,33.845,-117.510555,corona
Eagle Valley,405574,Surface,Christopher B  Smith,96725,Pacific States Transportation,"Sand, Industrial NEC",33.826944,-117.494722,Corona
Moon Rock Company,4503690,Surface,Steven L  Woodard,118191,Moon Rock Company,Construction Sand and Gravel,47.581667,-117.494722,Spokane
Chandler Aggregates-Sierra Plant,404157,Surface,Jim  Broyles,L13940,Chandler Aggregates Inc,Construction Sand and Gravel,33.7575,-117.483055,Corona
MAITRI CANYON PLANT,403684,Surface,Jim  Broyles,L12911,Foster Sand & Gravel,Construction Sand and Gravel,33.745833,-117.477777,Corona
Mayhew Plant,403871,Surface,John  Robertson; Patrick  Broyles,124230,Mayhew Aggregates & Mine Reclamation,Construction Sand and Gravel,33.758333,-117.476944,Corona
#2 Portable,405553,Surface,Antonio  Paredes,L15041,Rock Structures Construction Co,"Crushed, Broken Stone NEC",33.828888,-117.465,Corona
Durkee Cement Plant,3502970,Facility,Ash Grove Cement Company,L02019,Ash Grove Cement Co,Cement,44.5437,-117.421,Durkee
Rialto,405392,Surface,Robertson's Ready Mix Inc; Mitsubishi Corp,L14361,Robertson's ,Construction Sand and Gravel,34.150556,-117.418333,Rialto
Panamint Valley Limestone Quarry,400275,Surface,Constellation Operating Services Inc; Arclight,L15382,Ace Cogeneration Company,"Crushed, Broken Limestone NEC",36.161111,-117.400833,Trona
Lytle Creek Pit,405216,Surface,Cemex S A,51070,CEMEX Construction Materials LP,Construction Sand and Gravel,34.156389,-117.399722,Rialto
Riverside Operation,404263,Facility,Pioneer Natural Resources USA Incorporated,L13776,Premier Silica LLC,Ground Silica,34.016944,-117.396111,Riverside
Pacific Clay Pits,400558,Surface,David H  Murdock,L00727,Pacific Clay Products Inc,Common Clays NEC,33.726389,-117.393056,Lake Elsinore
Crestmore Quarry,400010,Facility,Martin Marietta Materials Inc; TXI Industries Inc,L15861,Riverside Cement Co,Cement,34.033889,-117.390278,Riverside
Pacific Aggregates Pits,405635,Surface,David H  Murdock,63043,Pacific Aggregates Inc,Construction Sand and Gravel,33.702222,-117.389722,Lake Elsinore
California Silica Products,405847,Surface,Randall  Humphreys; Robert  Humphreys,123751,Western States Wholesale,"Sand, Common",34.558333,-117.383888,Victorville
CR Briggs,405276,Surface,Atna Resources Ltd.,L11967,CR Briggs,Gold Ore,35.762777,-117.371666,Trona
Harlow Quarry/Corona,405595,Surface,Barney R  Northcote,L18360,Barney Northcote Inc ,"Sand, Common",33.896388,-117.37,WOODCREST
Celatom Plant,3503236,Facility,EP Management Corporation,80925,"EP Minerals, LLC",Misc. Nonmetallic Mnls. NEC,43.946388,-117.365555,Vale
Nichols Road Pit,405638,Surface,Jim  Broyles,L13940,Chandler Aggregates Inc,Construction Sand and Gravel,33.705833,-117.364722,Lake Elsinore
Pend Oreille Mine,4500366,Underground,Teck Resources Limited,87325,Teck Washington Incorporated,Zinc,48.881944,-117.359722,Metaline Falls
Riverside,405735,Surface,Harold  Newman,L10305,A-1 Grit,"Sand, Industrial NEC",33.987777,-117.353333,Riverside
San Bernardino Plant,401984,Surface,Vulcan Materials Company,L16645,CalMat Co,Construction Sand and Gravel,34.136111,-117.344444,Highland
Oro Grande Pit,404916,Surface,Robert E  Hove; Jonathan D  Hove,L12641,Agcon Inc,Construction Sand and Gravel,34.674166,-117.339722,Oro Grande
Oro Grande Quarry,400011,Facility,Martin Marietta Materials Inc; TXI Industries Inc,L15861,Riverside Cement Co,Cement,34.606389,-117.335833,Oro Grande
TXI-Riverside Cement,405557,Surface,Ronnie  Harriman,51298,Ron Harriman's  Loader Service,"Crushed, Broken Stone NEC",34.606388,-117.335833,Oro Grande
Colton Aggregates,405677,Surface,Taiheiyo Cement Corp,L11900,CalPortland,"Sand, Industrial NEC",34.057777,-117.334444,Colton
"Alpha Materials, Inc.",405322,Surface,Brian M  Oaks,51910,"Alpha Materials, Inc.","Sand, Common",34.063889,-117.306667,Riverside
Victorville Cement Plant,400281,Facility,Cemex S A,103149,Cemex Construction Materials Pacific LLC,Cement,34.538055,-117.2925,Victorville
Protech Minerals Inc ,401104,Facility,Chul L  Choe,L14357,Protech Minerals Inc,"Clay, Ceramic, Refractory Mnls.",34.534166,-117.286388,Victorville
Portable Operation A,405821,Surface,Nina  Moyers,117667,Arizona Pipeline Company,"Sand, Common",34.535,-117.285555,Victorville
Twin Creeks Mine,2601942,Surface,Newmont Mining Corp,L15317,Newmont USA Limited,Gold Ore,40.9625,-117.2675,GOLCONDA
Midas Mine,2602314,Underground,Klondex Mines Ltd,132974,"Klondex Midas Operations, Inc.",Gold Ore,40.9625,-117.2675,Winnemucca
Turquoise Ridge ,2602286,Underground,Barrick Gold Corp,L16736,"Barrick Turquoise Ridge, Inc.",Gold Ore,41.215833,-117.244167,Golconda
Redlands,404652,Surface,Robertson's Ready Mix Inc; Mitsubishi Corp,L14361,Robertson's,Construction Sand and Gravel,34.057222,-117.208611,Redlands
Black Mountain Quarry,405701,Facility,Cemex S A,103149,Cemex Construction Materials Pacific LLC,Cement,34.615833,-117.206944,Apple Valley
Sullivan Road Facility,4502709,Surface,CRH PLC,L00029,Central Pre-Mix Concrete Co.,Construction Sand and Gravel,47.675,-117.196389,Spokane
Portable Plant #1,405802,Surface,Stan  Houck,109369,"Aggtech, Inc.",Construction Sand and Gravel,34.1225,-117.195278,Highland
Fab-Tech 18,405518,Surface,Mike J  LaPaglia,L08940,North County Sand & Gravel Inc,Construction Sand and Gravel,33.740555,-117.181666,Temecula
Carroll Canyon Rock Plant,401790,Surface,Heidelberg Cement AG,L16389,Hanson Aggregates Pacific Southwest Inc,Construction Sand and Gravel,32.890555,-117.167777,San Diego
Superior - Twin Oaks,405514,Surface,J Brouwer Investments Inc,L10579,Superior Ready Mix Concrete L.P.,"Crushed, Broken Stone NEC",33.179722,-117.157222,San Marcos
Black Angel,405650,Surface,Stan  Houck,50757,Empire Rock Inc,Construction Sand and Gravel,34.739167,-117.138889,Barstow
NEVADA BARTH IRON MINE AND  MILL,2600078,Surface,Gregory G  Austin,L03135,Saga Exploration Inc.,Iron Ore,40.568888,-117.130555,Palisade
PINSON MINE ,2601597,Underground,Atna Resources Ltd.,119408,"Atna Resources, Inc.",Gold Ore,41.035833,-117.126389,Golconda
Carroll Canyon Plant,401932,Surface,Vulcan Materials Company,L16645,CalMat Co,Construction Sand and Gravel,32.901389,-117.123611,San Diego
West Coast Rock and Sand,405440,Surface,Marvin J  Struiksma,66483,West Coast Rock and Sand,Construction Sand and Gravel,32.901388,-117.123611,San Diego
Teague Mineral Products,3503249,Facility,Glen A  Teague; Marie  Teague,L08474,Teague Mineral Products,Misc. Nonmetallic Mnls. NEC,43.586944,-117.121944,Adrian
MARIGOLD MINE,2602081,Surface,Silver Standard Resources Inc,132894,Marigold Mining Co,Gold Ore,40.76,-117.103056,Valamy
Lone Tree Mine ,2602159,Surface,Newmont Mining Corp,L15317,Newmont USA Limited,Gold Ore,40.76,-117.103056,Valmy
GoldWedge,2602542,Underground,Scorpio Gold Corporation,126434,"GoldWedge, LLC",Gold Ore,38.543889,-117.087778,Manhattan
MISSION GORGE PLANT,400089,Surface,J Brouwer Investments Inc,L10579,Superior Ready Mix Concrete L P,Construction Sand and Gravel,32.808611,-117.078055,San Diego
Manhattan Gulch,2602658,Surface,Peter  Abt,P08335,"A.U. Mines, Inc.",Gold Ore,38.538888,-117.074722,Tonopah
Plant #2,1001609,Surface,Eucon Corp,L15789,DeAtley Crushing Co,Construction Sand and Gravel,46.375,-117.047777,LEWISTON
Plant #1,1001658,Surface,Eucon Corp,L15789,DeAtley Crushing Co,Construction Sand and Gravel,46.375,-117.047777,"LEWISTON, ID"
Plant #3,1001776,Surface,Eucon Corp,L15789,DeAtley Crushing Co,Construction Sand and Gravel,46.375,-117.047777,LEWISTON
Plant 4,1001900,Surface,Eucon Corp,L15789,DeAtley Crushing Co,Construction Sand and Gravel,46.375,-117.047777,LEWISTON
Plant #5,1001902,Surface,Eucon Corp,L15789,DeAtley Crushing Company,Construction Sand and Gravel,46.375,-117.047777,"Lewiston, ID"
Ocean View Mine,405575,Underground,Jeffrey A Swanger,51731,Ocean View Mines LLC,Misc. Nonmetallic Mnls. NEC,33.385833,-117.045556,Pala
Smoky Valley Common Operations,2600594,Surface,Kinross Gold Corp,L02512,Round Mountain Gold Corporation,Gold Ore,39.028611,-117.038888,round mountain
Inland Valley Materials LLC,405717,Surface,George W  Weir,80344,Escondido Sand & Gravel LLC,"Sand, Industrial NEC",33.098888,-117.027222,Escondido
Santee Rock Plant,405564,Surface,Heidelberg Cement AG,L16389,Hanson Aggregates Pacific Southwest Inc,"Crushed, Broken Stone NEC",32.847778,-117.021667,Santee
Brown Mountain ,405710,Surface,Jerry E  Brown,78604,Runts Trucking Inc.,Dimension Granite,33.168055,-117.02,Escondido
Duthie Pit,1000317,Surface,Eucon Corp,L02432,Atlas Sand & Rock Inc,Construction Sand and Gravel,46.416666,-117.017777,Lewiston
Post Falls Quarry,1002018,Surface,Eucon Corp,L06053,Spokane Rock Products Inc,Construction Sand and Gravel,47.716111,-116.994722,Post Falls
Chula Vista Quarry,404080,Surface,Vulcan Materials Company,L16645,CalMat Co,Construction Sand and Gravel,32.59,-116.993889,San Diego
Brubaker-Mann Incorporated,400030,Surface,Dorothy E  Mann,L31277,Brubaker-Mann Inc,"Crushed, Broken Stone NEC",34.904386,-116.987831,Barstow
Omya California,400167,Surface,Omya Industries Inc,97485,"Omya California, a Divison of Omya Inc.","Crushed, Broken Limestone NEC",34.387222,-116.945833,Lucerne Valley
Greystone Mine ,2600411,Surface,Schlumberger Ltd,L13501,M-I Swaco- A Schlumberger Company,Barite Barium Ore,40.650556,-116.945278,Battle Mountain
Battle Mountain Grinding Plant,2600828,Facility,Schlumberger Ltd,L13501,M-I Swaco- A Schlumberger Company,Barite Barium Ore,40.650556,-116.945278,Battle Moutntain
Mine #1,404843,Surface,J Brouwer Investments Inc,L10579,Superior Ready Mix Concrete L P,"Crushed, Broken Granite",32.906388,-116.943333,Lakeside
New Acers,1002169,Facility,Todd G  Clayton,L31916,Clayton's Calcium Inc,Misc. Nonmetallic Mnls. NEC,43.785277,-116.943333,"Fruitland, Idaho"
Rossi Jig Plant ,2602239,Surface,Halliburton,L16935,"Halliburton Energy Services, Inc.",Barite Barium Ore,40.637222,-116.943333,Battle Mtn
Comstock Mining LLC,2601871,Surface,Comstock Mining Inc,L18005,Comstock Mining LLC,Gold Ore,40.632777,-116.937777,GOLD HILL
Phoenix Mine,2600550,Surface,Newmont Mining Corp,L15317,Newmont USA Limited,Gold Ore,40.642222,-116.934167,Battle Mountain
Argenta Mine And Mill,2601152,Facility,Baker Hughes Inc,L13115,Baker Hughes Oilfield Operations,Barite Barium Ore,40.642222,-116.934167,Battle Mountain
Cedarapids 3054 Jaw Crusher S/N54038,2602618,Surface,Loren E  Hunewill,L02451,H. E. Hunewill Construction Co. Inc.,"Sand, Common",40.642222,-116.934167,Winnemucca
Cedarapids MVP450 Cone Crusher S/N54075,2602619,Surface,Loren E  Hunewill,L02451,H. E. Hunewill Construction Co. Inc.,"Sand, Common",40.642222,-116.934167,Winnemucca
Cedarapids MVP450 Cone Crusher S/N54440,2602620,Surface,Loren E  Hunewill,L02451,H. E. Hunewill Construction Co. Inc.,"Sand, Common",40.642222,-116.934167,Winnemucca
Slaven Mine,2602730,Surface,N A Degerstrom,L00832,"N.A. Degerstrom, Inc",Barite Barium Ore,40.642222,-116.934167,Battle Mountain
Rossi Crusher,2602735,Surface,N A Degerstrom,L00832,N.A. Degerstrom,Barite Barium Ore,40.642222,-116.934166,Battle Mountain
Enniss Lakeside Plant,404910,Surface,Carolyn  Sandoval; Delois N  Miller,L33050,Enniss Inc,Construction Sand and Gravel,32.901388,-116.931666,Lakeside
Lakeside Sand & Processing,401989,Surface,Heidelberg Cement AG,L16389,Hanson Aggregates Pacific Southwest Inc,Construction Sand and Gravel,32.865277,-116.93,Lakeside
JAMACHA QUARRY,400135,Surface,J Brouwer Investments Inc,L10579,Superior Ready Mix Concrete L.P.,Construction Sand and Gravel,32.761388,-116.927777,"LAKESIDE, CA"
Lucerne Valley Pit,403178,Surface,Robar Enterprises Inc,L08509,Hi-Grade Materials Co,Construction Sand and Gravel,34.413056,-116.926111,Lucerne Valley
Lucerne Valley Plant and Quarry,400219,Surface,Minerals Technologies Inc,L12908,Specialty Minerals Inc,"Crushed, Broken Limestone NEC",34.367222,-116.911388,Lurcerne Valley
El Cajon Quarry,400133,Surface,Robertson's Ready Mix Inc; Mitsubishi Corp,L14361,Robertson's,"Crushed, Broken Granite",32.764722,-116.89,San Diego
Banning,402815,Surface,Robertson's Ready Mix Inc; Mitsubishi Corp,L14361,Robertson's,Construction Sand and Gravel,33.942778,-116.867222,Banning
Sidehill Mine,400581,Surface,R T Vanderbilt Company Inc,77703,Vanderbilt Minerals LLC,"Clay, Ceramic, Refractory Mnls.",36.455556,-116.866389,Pahrump
Lucerne Valley,405690,Surface,Robertson's Ready Mix Inc; Mitsubishi Corp,L14361,Robertson's,Construction Sand and Gravel,34.370278,-116.862778,Lucerne Valley
Cushenbury Plant ,400157,Facility,Mitsubishi Corp,L10104,Mitsubishi Cement Corp,Cement,34.354444,-116.855833,Lucerne
3 D Pit,2602434,Surface,Shane N  Davis; John W  Davis,L17716,"John Davis Trucking Co., Inc.",Construction Sand and Gravel,40.518611,-116.828889,battle mountain
Cabazon,402774,Surface,Robertson's Ready Mix Inc; Mitsubishi Corp,L14361,Robertson's,Construction Sand and Gravel,33.9225,-116.814167,Cabazon
Superior Construction & Excavating Inc.,1002141,Surface,Kelly  Fulfer,133595,Superior Construction & Excavating Inc.,Construction Sand and Gravel,43.6825,-116.802777,Caldwell
ACI Northwest Inc,1002096,Surface,William  Radobenko Jr; William  Radobenko Sr,73044,ACI Northwest Inc,Construction Sand and Gravel,47.731388,-116.786388,Kettle River
White Caps Mill,2602489,Surface,R T Vanderbilt Company Inc,77703,Vanderbilt Minerals LLC,"Clay, Ceramic, Refractory Mnls.",36.884722,-116.769167,Beatty
Beatty Quarry,2602625,Surface,Paul E  D'Alessio,L16918,Kalamazoo Materials Inc,Construction Sand and Gravel,36.998056,-116.754167,Beatty
Caldwell Plant,1001768,Surface,Carl A  Register,L14354,Carco Mineral Resources Inc,Common Clays NEC,43.665685,-116.702324,caldwell
Newberry Mill ,402634,Facility,Elementis Plc,L15736,Elementis Specialties Inc,Common Clays NEC,34.830556,-116.680556,Newberry Springs
HECTOR MINE,400588,Surface,Elementis Plc,L15736,Elementis Specialties Inc,Common Clays NEC,34.830555,-116.680555,Newberry Springs
"Cope Sand & Gravel, Inc.",1002084,Surface,Bob L  Cope,69183,"Cope Sand & Gravel, Inc.",Construction Sand and Gravel,43.561388,-116.636666,Nampa
Sterling Mine,2601503,Underground,Imperial Metals Corp,L14079,Sterling Gold Mining Corp,Gold Ore,36.827778,-116.633056,Beatty
Danielson Rock,1002203,Surface,Bob  Danielson,109225,Danielson Rock,Construction Sand and Gravel,47.318055,-116.586666,St. Maries
Fire Creek,2602691,Underground,Klondex Mines Ltd,125873,Klondex Gold and Silver Mining Co.,Gold Ore,40.456944,-116.577778,Cresent Valley
Unimin Corporation-Emmett Plant,1000318,Facility,S C R-Sibelco Nv,L00645,Unimin Corp,Misc. Nonmetallic Mnls. NEC,43.868611,-116.547222,emmett
DUNPHY MILL,2600412,Facility,Halliburton,L16935,"Halliburton Energy Services, Inc.",Barite Barium Ore,40.708611,-116.526667,Battle Mountain
Star Pit,1001720,Surface,Cal D  Low; Clint B  Low,L12800,Low's Ready Mix Inc,Construction Sand and Gravel,43.691111,-116.494444,Star
Amargosa Quarry and Plant,2601043,Surface,Lhoist Group,L13416,Lhoist North America of Arizona,"Clay, Ceramic, Refractory Mnls.",36.45,-116.469722,Amargosa Valley
Hi Line Quarry,2602421,Surface,Terry J  Reck; Randy A  Reck,L17480,"Reck Brothers, LLC",Construction Sand and Gravel,38.8025,-116.419444,"Ely, NV"
Thousand Palms Pit,404807,Surface,Taiheiyo Cement Corp,L11900,CalPortland,Construction Sand and Gravel,33.845555,-116.405,thousand palms
Emerald Creek Garnet Ltd,1001564,Surface,Opta Minerals Co,L12437,Emerald Creek Garnet Ltd,Gemstones,47.079444,-116.384444,Fernwood
Barrick Cortez Inc.,2600827,Surface,Barrick Gold Corp,120768,Barrick Cortez Inc.,Gold Ore,40.545278,-116.372222,Crescent valley
Barrick Cortez Underground,2602573,Underground,Barrick Gold Corp,120768,Barrick Cortez Inc.,Gold Ore,40.545278,-116.372222,Cresent Valley
Campo Materials Company,405015,Surface,Muht-Hei Inc,L11912,Campo Materials Company,"Sand, Common",32.676388,-116.356111,campo
Bazza Underground Mine,2602720,Underground,Barrick Gold Corp,L09627,Barrick Goldstrike Mines Inc.,Gold Ore,40.838333,-116.339167,"Carlin, NV"
CLEMENTS-DECHAMBEAU,1002045,Surface,CCI  (Clyde Companies Inc),103546,Clements Concrete Co,Construction Sand and Gravel,43.667927,-116.318153,Boise
Silverlake Mine ,405281,Surface,Scott R  Descher,L15022,Hahm International Inc,Iron Ore,35.396111,-116.296111,Baker
Ash Meadows Plant & Mine,2602104,Facility,Imagin Minerals Incorporated,L06398,St. Cloud Mining Company,Misc. Nonmetallic Mnls. NEC,36.363333,-116.29,Pahrump
H & B Crushing,1002000,Surface,Bob  Hall; Steve  Dobson,51744,H & B Crushing LLC,Construction Sand and Gravel,43.612222,-116.245,Horseshoe Bend
Indio,401854,Surface,Granite Construction Inc,L00039,Granite Construction Company,Construction Sand and Gravel,33.768888,-116.237222,Indio
RMP Pleasant Valley Pit,1001795,Surface,Robert G  Amidon,74804,"Rocky Mountain Paving, Inc.",Construction Sand and Gravel,43.53,-116.233611,Boise
West Coast Aggregate Supply Inc,404731,Surface,Marvin J  Struiksma,L17526,West Coast Aggregate Supply Inc,Construction Sand and Gravel,33.8225,-116.213888,Indio
Crusher #1,1002089,Surface,MDU Resources Group Inc,L16679,Knife River Southern Idaho Division,Construction Sand and Gravel,43.502359,-116.199153,Boise
DILLON ROAD PIT,404937,Surface,J Brouwer Investments Inc,L10579,Superior Ready Mix Concrete L.P.,Construction Sand and Gravel,33.791388,-116.188333,indio
Mill 6,2602678,Facility,Newmont Mining Corp,L15317,Newmont USA Limited,Gold Ore,40.785556,-116.186111,Carlin
West Coast Aggregate Supply Inc,404209,Surface,Marvin J  Struiksma,L17526,West Coast Aggregate Supply Inc,Construction Sand and Gravel,33.636666,-116.162222,Thermal
Fargo Canyon Mine,404470,Surface,James  Richert,73864,Coronet Concrete Products Inc,Construction Sand and Gravel,33.745277,-116.154444,Coachella
Ruby Hill Mine,2602307,Surface,Barrick Gold Corp,L07233,Homestake Mining Company Of California,Gold Ore,39.8775,-116.135833,Eureka
Sestanovich Pit,2602698,Surface,Daniel E Groth,133673,DV Gravel & Exploration LLC,"Sand, Industrial NEC",39.8775,-116.135833,Eureka
PLASTER CITY QUARRY,400915,Surface,USG Corporation,L00537,United States Gypsum Company,Gypsum,33.130833,-116.132777,Borrego Springs
Mt. Hope Project,2602729,Surface,General Moly Inc,126513,"Eureka Moly, LLC",Molybdenum Ore,39.784444,-116.130278,Eureka
COACHELLA VALLEY AGGREGATE,405365,Surface,Jim  Broyles,L16406,Coachella Valley Aggregates Inc,Construction Sand and Gravel,33.753055,-116.126944,Indio
Genesis,2600062,Surface,Newmont Mining Corp,L15317,Newmont USA Limited,Gold Ore,40.713889,-116.103889,Carlin
South Area ,2600500,Surface,Newmont Mining Corp,L15317,Newmont USA Limited,Gold Ore,40.713889,-116.103889,Carlin
Goldstrike Mine,2601089,Surface,Barrick Gold Corp,L09627,Barrick Goldstrike Mines Inc,Gold Ore,40.713889,-116.103889,Carlin
Meikle Mine,2602246,Underground,Barrick Gold Corp,L09627,Barrick Goldstrike Mines Inc,Gold Ore,40.713889,-116.103889,Carlin
Storm Exploration Decline,2602300,Underground,Barrick Gold Corp,L09627,Barrick Goldstrike Mines Inc,Gold Ore,40.713889,-116.103889,Elko
Chukar,2602481,Underground,Newmont Mining Corp,L15317,Newmont USA Limited,Gold Ore,40.713889,-116.103889,Carlin
Leeville,2602512,Underground,Newmont Mining Corp,L15317,Newmont USA Limited,Gold Ore,40.713889,-116.103889,Carlin
Exodus,2602661,Underground,Newmont Mining Corp,L15317,Newmont USA Limited,Gold Ore,40.713889,-116.103889,Carlin
Roaster Operations,2602673,Facility,Barrick Gold Corp,L09627,Barrick Goldstrike Mines Inc,Gold Ore,40.713889,-116.103889,Carlin
Mill/Autoclave Operations,2602674,Facility,Barrick Gold Corp,L09627,Barrick Goldstrike Mines Inc,Gold Ore,40.713889,-116.103889,Carlin
Pete Bajo,2602689,Underground,Newmont Mining Corp,L15317,Newmont USA Limited,Gold Ore,40.713889,-116.103889,Carlin
Sunshine Mine,1000089,Underground,Sunshine Silver Mines Corp,119889,Silver Opportunity Partners LLC,Silver Ore,47.526111,-116.051667,Kellogg
API Pit,404678,Surface,John  Corcoran,L13597,Aggregate Products Inc,Construction Sand and Gravel,33.374444,-116.023056,Salton Sea Beach 
Imperial Valley Aggregates,405850,Surface,James  Richert,73864,Coronet Concrete Products,Construction Sand and Gravel,32.758297,-116.002562,Ocotillo
Golden Eagle ,1002155,Underground,Daniel R  Yanke; Christopher  Clark,90205,"Greyhound Mine & Milling, Inc.",Gold Ore,43.481667,-115.998056,Boise
Galena,1000082,Underground,U S Silver & Gold,L16955,"U.S. Silver - Idaho, Inc.",Silver Ore,47.485,-115.961389,Wallace
VEGA-PORTABLE CRUSHER #1,2601862,Surface,Manuel R  Vega,L39825,Vega Construction & Trucking Co.,Construction Sand and Gravel,40.742222,-115.911388,elko
Troy Mine Inc.,2401467,Underground,Revett Silver Company,L17328,Troy Mine Inc.,Copper Ore NEC,48.463333,-115.889722,Troy
Emigrant ,2602697,Surface,Newmont Mining Corp,L15317,Newmont USA Limited,Gold Ore,40.840556,-115.811667,Carlin
Lucky Friday,1000088,Underground,Hecla Mining Company,L00049,Hecla Limited,Silver Ore,47.470278,-115.801944,Mullan
Jerritt Canyon Mill,2601621,Facility,Veris Gold Corp.,L10244,"Veris Gold U.S.A., Inc.",Gold Ore,40.8325,-115.763056,Elko
SSX Mine,2602299,Underground,Keith  Jones,L12820,SMALL MINE DEVELOPMENT L.L.C.,Gold Ore,40.8325,-115.763056,ELKO
Starvation Canyon,2602634,Underground,Keith  Jones,L12820,Small Mine Development LLC,Gold Ore,40.8325,-115.763056,"Elko, NV"
Saval #4,2602742,Underground,Veris Gold Corp.,L10244,Veris Gold USA Inc.,Gold Ore,40.8325,-115.763056,Elko 
Lee Smith Mine,2602397,Underground,Keith  Jones,L12820,Small Mine Development LLC,Gold Ore,40.8325,-115.763055,Elko
BOEHLER PIT,2600429,Surface,CRH PLC,50765,Staker & Parson Co.,Construction Sand and Gravel,40.848611,-115.729167,ELKO
NOV Osino Barite Mill,2602724,Facility,National Oilwell Varco Inc,103766,National Oilwell Varco LP,Barite Barium Ore,40.891944,-115.707222,Osino
Pardo Quarry,2602292,Surface,Dan E  Hooker,L03759,Harney Rock & Paving Company,Dimension Stone NEC,40.867778,-115.705,ELKO
Bald Mountain Mine,2601842,Surface,Barrick Gold Corp,73283,Barrick Gold U S Inc,Gold Ore,39.942222,-115.614722,Eureka
Shenandoah Mill ,2602408,Facility,Clarence  Wagenaar,L17087,KMI Zeolite Inc,Brucite,35.801944,-115.579722,Sand Valley
Mt Pass Mine & Mill,402542,Surface,Molycorp Inc,96066,Molycorp Minerals ,Rare Earths Ore,35.471944,-115.574444,Primm
Montanore Project,2402450,Underground,Glenn M.  Dobbs,121890,Montanore Minerals Corp,Silver Ore,48.099444,-115.5675,Libby
East Highline,401816,Surface,Donald H  Gibson,L00333,"Gibson's All American Aggregates, Inc.",Construction Sand and Gravel,32.978657,-115.530267,Brawley
Crushing Screening,405237,Surface,Karen R  Blue; Maureen E  Zills,L16957,Cal-Grade Inc,Construction Sand and Gravel,32.978611,-115.512777,Brawley
Dalton Mining Services,405771,Surface,Terry  Klenske,L12612,Dalton Trucking Inc,Gypsum,35.764722,-115.496944,Sandy Valley
Jean Plant,2602520,Surface,Mitsubishi Corp,L13965,Service Rock Products,Construction Sand and Gravel,35.764722,-115.496944,Henderson
Sierra Ready Mix Quarry Site,2602594,Surface,Jeff W  Davis,72123,"Sierra Ready Mix, LLC","Sand, Industrial NEC",35.764722,-115.496944,Jean
Rainbow Quarries ,2602174,Surface,Michael  Kiddy; Steve  Wickman,L12686,Las Vegas Rock Inc,Construction Sand and Gravel,35.8325,-115.434167,Henderson
Amy Mine,2602666,Underground,Brad A  Stocks; Ruth E  Stocks,98985,Stocks Trucking Company LLC,Gold Ore,41.900556,-115.425833,jarbidge
BLUE DIAMOND HILL,2600097,Surface,James M Rhodes Dynasty Trust I; James M Rhodes Dynasty Trust II,121658,GYPSUM RESOURCES LLC,Gypsum,36.083333,-115.403333,Las Vegas
Primm Quarry,2602651,Surface,Robert L  Mendenhall,L11451,Las Vegas Paving Corp,Construction Sand and Gravel,35.614722,-115.390278,Primm
Lone Mountain Pit,2601602,Surface,Robert L  Mendenhall,L11451,Las Vegas Paving Corp,Construction Sand and Gravel,36.250833,-115.345556,Las Vegas
Mel Clark Inc.,2602139,Surface,Melvin D  Clark,L16445,Mel Clark Inc.,Construction Sand and Gravel,36.248333,-115.324722,Las Vegas
Lone Mountain Pit,2602142,Surface,Mitsubishi Corp,L10654,Nevada Ready Mix Corp,Construction Sand and Gravel,36.254167,-115.324167,Clark
Lone Mountain,2602356,Surface,Floyd A  Meldrum,L15225,"Boulder Sand & Gravel, Inc.",Construction Sand and Gravel,36.255278,-115.320833,Las Vegas
Westside Sand and Gravel,2602138,Surface,David W  Rice,117648,Rice Construction,Construction Sand and Gravel,36.247778,-115.320556,North Las Vegas
Wells Cargo Inc ,2600460,Surface,Howard A  Wells,L40099,Wells Cargo Inc,Construction Sand and Gravel,36.1275,-115.256388,Las Vegas
Blue Diamond Crusher ,2602375,Surface,Robert L  Mendenhall,L11451,Las Vegas Paving Corp,Construction Sand and Gravel,36.02,-115.225555,las vegas
Money Pit Mine,2601563,Surface,Spencer  Apple,L38612,Southern Nevada Liteweight,Construction Sand and Gravel,35.943611,-115.217222,LAS VEGAS
Sloan Quarry #1001,2601845,Surface,Holcim Ltd,L06525,"Aggregate Industries SWR, Inc.",Construction Sand and Gravel,35.942777,-115.216388,Las Vegas
Eldorado,2602552,Surface,Elizabeth M  Smith; Ira J  Smith,132893,"Desert Deco Rock, LC","Crushed, Broken Stone NEC",37.396111,-115.178055,Nelson
Pioneer Gypsum Mining Inc,2602386,Surface,Donald L  Denman,68483,Pioneer Gypsum Mining Inc,Gypsum,36.254444,-115.176944,las vegas
Pabco Gypsum Apex Quarry,2600093,Surface,Pacific Coast Building Products Inc,51375,PABCO Building Products LLC,Gypsum,36.195555,-115.08,PABCO Rd
Screen/Crusher 1,2402484,Surface,Donavan D  Truman,71804,Kootenai Sand & Gravel Inc ,Construction Sand and Gravel,48.893056,-115.0575,Eureka
Robinson Operation,2601916,Surface,KGHM Polska Miedz S A,52463,Robinson Nevada Mining Company,Copper Ore NEC,39.266389,-114.987222,ruth
PAP Portable #1,2602667,Surface,Sandy  Robles; Laura A  Lintz,98745,Portable Aggregate Producers LLC,Construction Sand and Gravel,36.013889,-114.983056,Henderson
Black Canyon 2100,1002146,Surface,Summit Materials LLC,116845,Triple C Concrete,Construction Sand and Gravel,42.903611,-114.940278,Rupert
Modoc Pit,2602546,Surface,Paul E  D'Alessio,62664,Southwest Granite Wholesalers Inc,"Crushed, Broken Stone NEC",35.465269,-114.919701,"Searchlight, NV"
Apex Quarry and Plant,2600081,Surface,Lhoist Group,L13416,Lhoist North America of Arizona Inc.,Lime,36.357222,-114.910278,Las Vegas
510CEC,2602406,Surface,Scott  Jones,L14503,Chase Crushing LLC,"Crushed, Broken Stone NEC",35.442777,-114.910277,"Searchlight, VV"
Ely Wash Plant ,2600952,Surface,Tony  Locke,L01973,J & M Trucking Inc,Construction Sand and Gravel,39.247222,-114.868889,ely
Montana Solid Rock Quarry #4,2402433,Surface,Robyn  Duffy; Thomas  Duffy,135234,Montana Solid Rock Quarry Inc,Dimension Stone NEC,47.445556,-114.864167,Plains
Apex Landfill,2602279,Surface,Robert L  Mendenhall,L11451,Las Vegas Paving Corp,"Crushed, Broken Stone NEC",36.374722,-114.861389,North Las Vegas
MCGREGOR,2402226,Surface,Brad  Mercord; Bill  Carter,83324,Montana Rockworks Inc.,Dimension Stone NEC,48.043055,-114.836388,Kalispell
Boulder Ranch Quarry,2600438,Surface,Bill  Wadley,L16981,CTC Crushing,Construction Sand and Gravel,35.978611,-114.831666,Boulder City
BLT Companies,202961,Surface,Gerald L  Thomas; Brian  Thomas,125213,BLT Companies LLLP,Construction Sand and Gravel,32.698333,-114.692777,YUMA
