MINE_ID,CURRENT_MINE_NAME,CURRENT_MINE_TYPE,CURRENT_CONTROLLER_NAME,CURRENT_OPERATOR_ID,CURRENT_OPERATOR_NAME,STATE,PRIMARY_SIC,DAYS_PER_WEEK,HOURS_PER_SHIFT,PROD_SHIFTS_PER_DAY,MAINT_SHIFTS_PER_DAY,NO_EMPLOYEES,PART48_TRAINING,longitude_FALSE,latitude,AVG_MINE_HEIGHT,MINE_GAS_CATEGORY_CD,METHANE_LIBERATION,NO_PRODUCING_PITS,NO_NONPRODUCING_PITS,NO_TAILING_PONDS,PILLAR_RECOVERY_USED,HIGHWALL_MINER_USED,MULTIPLE_PITS,MINERS_REP_IND,SAFETY_COMMITTEE_IND,NEAREST_TOWN,longitude
5001031,Maine Monroeville,Surface,Nome Gold Company,125073,Nome Gold Alaska Corporation,AK,Gold Ore,7,12,2,0,25,N,165.408611,64.541389,,,,,,0,N,N,N,N,N,Nome,-165.408611
5001545,Red Dog,Surface,Teck Resources Limited,L10019,Teck Alaska Inc,AK,Lead-Zinc Ore,7,12,2,1,340,N,162.433889,68.046111,,,,,,1,N,N,N,N,N,Kotzebue,-162.433889
5100190,Kauai Aggregates,Surface,O Thronas Incorporated; Priscilla K  Thronas,95346,Kauai Aggregates,HI,"Crushed, Broken Stone NEC",5,12,1,0,8,Y,159.546432,21.911457,,,,,,0,N,N,N,N,N,Lihue,-159.546432
5100011,Bluestone Quarry & Mill,Surface,James W Glover Holding Company Ltd,L34773,Jas W Glover Ltd,HI,"Crushed, Broken Traprock",5,8,2,0,13,Y,159.397117,21.966301,,,,,,0,N,N,N,N,N,Lihue,-159.397117
5100224,Portable Plant,Surface,Lawrence E  Wilderman,51342,Pacific Aggregate,HI,Construction Sand and Gravel,5,8,1,0,2,Y,158.155025,21.415692,,,,,,0,N,N,N,N,N,waianae,-158.155025
5100173,Makakilo Quarry,Surface,Alexander & Baldwin Incorporated,L07273,Grace Pacific LLC,HI,Dimension Stone NEC,5,9,1,0,38,Y,158.064909,21.351936,,,,,,0,N,N,N,N,N,kAPOLEI,-158.064909
5100036,Halawa Valley,Surface,MDU Resources Group Inc,L08811,Hawaiian Cement,HI,"Crushed, Broken Stone NEC",6,10,1,0,54,Y,157.9125,21.371944,,,,,,0,N,N,N,N,N,AIEA,-157.9125
5100019,Kapaa Quarry And Mill,Surface,Pohaku Paa LLC,134414,Ameron Hawaii LLC,HI,"Crushed, Broken Traprock",6,9,2,0,70,Y,157.769444,21.378055,,,,,,0,N,N,N,N,N,HONOLULU,-157.769444
5100171,Waikapu Quarry,Surface,MDU Resources Group Inc,L08811,Hawaiian Cement,HI,"Crushed, Broken Stone NEC",5,9,1,0,5,Y,156.504856,20.880871,,,,,,0,N,N,N,N,N,Wailuku,-156.504856
5100192,Puunene Quarry,Surface,MDU Resources Group Inc,L08811,Hawaiian Cement,HI,"Crushed, Broken Stone NEC",5,8,1,0,7,Y,156.461111,20.851804,,,,,,0,N,N,N,N,N,Kahului,-156.461111
5100004,Puunene Camp 10 Quarry,Surface,Pohaku Paa LLC,134414,Ameron Hawaii LLC,HI,"Crushed, Broken Traprock",5,8,1,0,20,Y,156.4531,20.8638,,,,,,0,N,N,N,N,N,Puuene,-156.4531
5100302,Arrow Hawaiian dba.,Surface,Joseph  Chamberlain,106145,Arrow of Oregon/Hawaii LLC,HI,Construction Sand and Gravel,4,10,1,0,3,Y,155.72929,19.133283,,,,,,0,N,N,N,N,N,Ocean View,-155.72929
5100225,Puuheihei Cinder Quarry,Surface,Edwin  DeLuz,L32961,Edwin Deluz Trucking & Gravel LLC,HI,"Crushed, Broken Stone NEC",5,10,1,0,6,Y,155.665857,19.898682,,,,,,0,N,N,N,N,N,Kamuela,-155.665857
5100199,Edwin DeLuz Trucking & Gravel LLC,Surface,Edwin  DeLuz,L32961,Edwin DeLuz Trucking & Gravel LLC,HI,"Crushed, Broken Stone NEC",2,10,1,0,4,Y,155.565555,20.028055,,,,,,0,N,N,N,N,N,Waimea,-155.565555
5100046,"Yamada And Sons, Inc.",Surface,Donald  Yamada,L01426,"Yamada and Sons, Inc.",HI,"Crushed, Broken Stone NEC",6,8,1,0,10,Y,155.063548,19.708683,,,,,,0,N,N,N,N,N,Hilo,-155.063548
5100008,Hilo Crusher,Surface,James W Glover Holding Company Ltd,L34773,James W Glover Ltd,HI,"Crushed, Broken Traprock",5,8,1,0,11,Y,155.057179,19.708174,,,,,,0,N,N,N,N,N,hILO,-155.057179
5100165,Keaau Quarry,Surface,Russell  Kuwaye,L15677,Puna Rock Company Ltd,HI,"Crushed, Broken Stone NEC",5,8,1,0,4,Y,155.021388,19.626944,,,,,,0,N,N,N,N,N,Keaau,-155.021388
5100223,Sanford's Service Center Incorporated,Surface,Sanford  Iwata,L14468,Sanford's Service Center Inc,HI,"Crushed, Broken Stone NEC",5,8,1,0,6,Y,154.958889,19.506944,,,,,,0,N,N,N,N,N,Pahoa,-154.958889
5000030,Usibelli,Surface,Joseph E  Usibelli,P04002,Usibelli Coal Mine Inc,AK,Coal (Bituminous),4,9,2,1,120,N,148.966111,63.856944,192,,,3,1,,N,N,Y,N,Y,Healy,-148.966111
5001977,Northland Coal Screening Plant,Facility,Mark W  Sanford,80506,Northland Fuels and Energy,AK,Coal (Bituminous),2,8,1,0,3,N,148.966111,63.856944,,,,,0,,N,N,N,N,N,Healy,-148.966111
5001614,Scabtron,Underground,Mark E  Miell,L38257,Scabtron,AK,Gold Ore,7,8,1,0,2,N,147.549722,65.076667,,VI,,,,0,N,N,N,N,N,Fairbanks,-147.549722
5001616,Fort Knox Mine,Surface,Kinross Gold Corp,L33155,Fairbanks Gold Mining Inc,AK,Gold Ore,7,12,2,0,467,N,146.521944,65.072777,,,,,,0,N,N,N,N,N,Fairbanks,-146.521944
5001642,Pogo Mine,Underground,Sumitomo Metal Mining Co Ltd,L16072,Sumitomo Metal Mining Pogo LLC,AK,Gold Ore,7,12,2,2,350,N,146.111111,64.259722,,VI,,,,0,N,N,N,N,N,Delta Junction,-146.111111
5001544,Kensington,Underground,"Coeur Mining, Inc.",L13779,Coeur Alaska Inc,AK,Gold Ore,7,12,2,0,323,N,135.017222,58.799444,,VI,,,,1,N,N,N,N,N,Juneau,-135.017222
5001267,Hecla Greens Creek Mine,Underground,Hecla Mining Company,L11319,Hecla Greens Creek Mining Company,AK,Silver Ore,7,11,2,2,410,N,134.745833,58.1175,,VI,,,,0,N,N,N,N,N,Juneau,-134.745833
3501003,Kincheloe Quarry,Surface,Wesley J  Kincheloe,L01786,Kincheloe & Sons Inc,OR,"Crushed, Broken Traprock",5,8,1,0,3,Y,124.161389,43.105556,,,,,,0,N,N,N,N,N,Myrtle Point,-124.161389
402711,ALTON PIT & MILL,Surface,Robert C  McLaughlin; Michael J  McLaughlin,L05691,Eureka Sand & Gravel Co Inc,CA,Construction Sand and Gravel,5,0,0,0,2,Y,124.149444,40.548611,,,,,,0,N,N,N,N,N,EUREKA,-124.149444
405368,ERM Rock,Surface,Robert C  McLaughlin; Michael J  McLaughlin,L05691,Eureka Ready Mix Concrete Co Inc,CA,Construction Sand and Gravel,5,8,1,0,3,Y,124.128055,40.513888,,,,,,0,N,N,N,N,N,scotia,-124.128055
3503291,Portable Crusher,Surface,Ronald D  Braxling,L02274,Braxling & Braxling Inc,OR,"Crushed, Broken Stone NEC",5,8,1,0,5,Y,124.0475,44.648055,,,,,,0,N,N,N,N,N,NEWPORT,-124.0475
3502376,Cedar Creek Quarries Inc-Fischer Pit,Surface,Robert G  Wienert,L07267,Cedar Creek Quarries Inc,OR,"Crushed, Broken Traprock",5,8,1,0,4,Y,124.042777,44.637222,,,,,,0,N,N,N,N,N,Lincoln city,-124.042777
3503123,Cedar Creek Quarries Inc-Cedar Creek Pit,Surface,Robert G  Wienert,L07267,Cedar Creek Quarries Inc,OR,"Crushed, Broken Traprock",5,8,1,0,3,Y,124.042777,44.637222,,,,,,0,N,N,N,N,N,Newport,-124.042777
3503353,Cedar Creek Quarries Inc - Panky Pit,Surface,Robert G  Wienert,L07267,"Cedar Creek Quarries, Inc",OR,"Crushed, Broken Stone NEC",5,8,1,0,3,Y,124.042777,44.637222,,,,,,0,N,N,N,N,N,Cedar creek,-124.042777
401760,CHRISTIE BAR,Surface,Robert C  McLaughlin; Michael J  McLaughlin,L05691,Eureka Sand & Gravel Co. Inc.,CA,Construction Sand and Gravel,0,0,0,,4,Y,123.997872,40.888504,,,,,,,N,N,N,N,N,,-123.997872
3503558,Eagle Portable Crusher,Surface,Shawn  Teevin; Tom  Fischer,76163,Teevin & Fischer Quarry LLC,OR,"Crushed, Broken Stone NEC",5,8,1,0,4,Y,123.915277,46.058888,,,,,,0,N,N,N,N,N,Seaside,-123.915277
4503331,Portable Crusher,Surface,Jesse  Kollman,L15676,Arris Kollman Trucking Inc,WA,"Crushed, Broken Traprock",5,8,1,1,3,Y,123.844444,46.969444,,,,,,0,N,N,N,N,N,Hoquiam,-123.844444
3503364,Heinz pit,Surface,(Andrew) Martin  Nygaard,L35863,"Warrenton Fiber Company, Inc.",OR,"Crushed, Broken Stone NEC",5,8,1,0,4,Y,123.811666,46.169444,,,,,,0,N,N,N,N,N,Clatsop,-123.811666
4500319,Newskah Quarry ,Surface,Randy  Rognlin,L15456,Northwest Rock Inc,WA,"Crushed, Broken Traprock",5,8,1,0,2,Y,123.809722,46.898055,,,,,,0,N,N,N,N,N,Aberdeen,-123.809722
4503304,Hawks Superior Rock Inc,Surface,Michael  Runyon,L34142,Hawks Superior Rock Inc,WA,"Crushed, Broken Traprock",5,8,1,0,2,Y,123.803888,46.690833,,,,,,0,N,N,N,N,N,Raymond,-123.803888
404280,Randall Sand & Gravel,Surface,Cathy R  Studebaker,76943,Randall Sand & Gravel,CA,Construction Sand and Gravel,5,8,1,0,5,Y,123.799722,40.093611,,,,,,0,N,N,N,N,N,Garberville,-123.799722
4500063,Naselle Quarry,Surface,Arne L Wirkkala,L06086,Naselle Rock & Asphalt Company,WA,"Crushed, Broken Traprock",5,8,1,0,8,Y,123.785008,46.381735,,,,,,0,N,N,N,N,N,Naselle,-123.785008
3503436,Whiskey CR Plant,Surface,Clay E  Cook,L15669,S-C Paving Company,OR,"Crushed, Broken Stone NEC",5,8,1,0,4,Y,123.765833,45.442222,,,,,,0,N,N,N,N,N,Tillamook,-123.765833
4501129,Chinook Quarry ,Surface,Arne L Wirkkala,L06086,Naselle Rock & Asphalt Company,WA,"Crushed, Broken Traprock",5,8,1,0,3,Y,123.758678,46.410841,,,,,,0,N,N,N,N,N,Naselle,-123.758678
4503552,Wynoochee Pit East,Surface,Randy  Rognlin,L15456,Northwest Rock Inc,WA,Construction Sand and Gravel,5,8,1,0,3,Y,123.581944,47.078611,,,,,,1,N,N,N,N,N,Aberdeen,-123.581944
4503570,Black Diamond Quarry,Surface,Dennis  Holcomb,54796,D. Holcomb & Co.,WA,Construction Sand and Gravel,5,8,1,0,3,Y,123.498056,48.060278,,,,,,0,N,N,N,N,N,Port Angeles,-123.498056
3500524,Oakridge Sand & Gravel Incorporated,Surface,Edward B Fisher,L36841,Oakridge Sand & Gravel Inc,OR,Construction Sand and Gravel,5,10,1,0,4,Y,123.483056,44.073611,,,,,,0,N,N,N,N,N,Oakridge,-123.483056
4503441,Andersen & Sons Gravel,Surface,Andrew  Andersen; Eric  Andersen,L17355,Andersen & Sons Gravel,WA,"Crushed, Broken Stone NEC",5,8,1,0,2,Y,123.430833,48.118055,,,,,,0,N,N,N,N,N,Port Angeles,-123.430833
3502841,Shenk Quarry,Surface,Dan  Kauffman,50968,D K  Quarries Inc,OR,"Crushed, Broken Stone NEC",5,8,1,0,3,Y,123.429166,44.985277,,,,,,0,N,N,N,N,N,Rickreal,-123.429166
3500135,BEAR CREEK QUARRY,Surface,Mary Lou  Garrett,L12344,W W D Corp,OR,"Crushed, Broken Stone NEC",5,8,1,0,6,Y,123.351496,43.63989,,,,,,0,N,N,N,N,N,Drain,-123.351496
405139,Harris Quarry,Surface,Frank  Dutra,L36772,Northern Aggregates Inc,CA,"Crushed, Broken Stone NEC",5,10,1,0,9,Y,123.310556,39.3375,,,,,,0,N,N,N,N,N,PORTALBE,-123.310556
3503343,Territorial Rock Pit,Surface,Joseph G  Pilling,68023,Precision Aggregate Products Inc,OR,"Crushed, Broken Stone NEC",5,8,1,0,3,Y,123.295277,44.296111,,,,,,0,N,N,N,N,N,Monroe,-123.295277
3500089,Conser Quarry,Surface,George  Tracer,L32067,Conser Quarry Co,OR,"Crushed, Broken Traprock",5,10,1,0,6,Y,123.271388,44.251944,,,,,,0,N,N,N,N,N,Junction City,-123.271388
3500463,Fisher Island Plant ,Surface,MDU Resources Group Inc,L16679,Knife River Corporation - Northwest,OR,"Crushed, Broken Traprock",5,8,1,0,5,Y,123.264722,44.556388,,,,,,0,N,N,N,N,N,Corvallis,-123.264722
3502705,ESG Corvallis Facility,Surface,CRH PLC,L00029,Green & White Rock Products ,OR,Construction Sand and Gravel,5,10,1,1,10,Y,123.26,44.488611,,,,,,0,N,N,N,N,N,corvalis,-123.26
3501306,Portable Crusher,Surface,Carla A  Robertson,L02708,Robco Inc,OR,"Crushed, Broken Traprock",5,8,1,0,3,Y,123.254444,42.435,,,,,,0,N,N,N,N,N,Grants Pass,-123.254444
3503435,Martin Creek Quarry,Surface,Robert  Mullins,L15029,Martin Creek Quarry Inc,OR,"Crushed, Broken Stone NEC",5,8,1,0,3,Y,123.205278,43.854722,,,,,,0,N,N,N,N,N,Cottage Grove,-123.205278
4500581,Blake Pit,Surface,David A  Blake; Casey L  Blake,109806,"Blake Sand & Gravel, Inc.",WA,Construction Sand and Gravel,5,8,1,0,9,Y,123.1675,48.130556,,,,,,0,N,N,N,N,N,Sequim,-123.1675
4503325,Lawson Quarry Inc,Surface,Richard  Lawson Jr; Thomas  Lawson,L37770,Lawson Quarry Inc,WA,Construction Sand and Gravel,5,8,1,0,3,Y,123.137222,48.555,,,,,,0,N,N,N,N,N,Friday harbor,-123.137222
4502282,Shelton Pit,Surface,Walt  Miles,L00797,Miles Sand & Gravel Company ,WA,Construction Sand and Gravel,5,8,1,0,5,Y,123.133056,47.209722,,,,,,0,N,N,N,N,N,Shelton,-123.133056
3501203,Bowyer Quarry,Surface,John F  Kamph,L35086,Kamph Rock Crushing Company Inc,OR,"Crushed, Broken Stone NEC",5,10,1,0,3,Y,123.121111,45.151944,,,,,,0,N,N,N,N,N,Dayton,-123.121111
4500616,Davis Sand & Gravel Incorporated,Surface,Dana  Davis,L32465,Davis Sand & Gravel Company Inc,WA,Construction Sand and Gravel,5,8,1,0,4,Y,123.111667,48.106944,,,,,,2,N,N,N,N,N,Sequim,-123.111667
4503066,Kennedy Creek Quarry,Surface,James L  Thurman,L35157,Kennedy Creek Quarry Incorporated,WA,"Crushed, Broken Traprock",5,8,1,0,5,Y,123.108636,47.107423,,,,,,1,N,N,N,N,N,Shelton,-123.108636
4503436,LITTLE CREEK ROCK QUARRY,Surface,Jesse  Kollman,L15676,Arris Kollman Trucking Inc,WA,"Crushed, Broken Traprock",5,8,1,0,5,Y,123.108333,47.149444,,,,,,0,N,N,N,N,N,Shelton,-123.108333
3500481,Delta Pit And Plant,Surface,Paula J  Babb,L32531,Delta Sand & Gravel Company,OR,Construction Sand and Gravel,5,8,1,0,27,Y,123.107222,44.096667,,,,,,0,N,N,N,N,N,Eugene,-123.107222
3503321,MBI Portable Crusher #1,Surface,MDU Resources Group Inc,L16679,Knife River Corporation - Northwest,OR,"Crushed, Broken Traprock",5,8,1,0,5,Y,123.1025,44.559166,,,,,,0,N,N,N,N,N,Linn,-123.1025
3500484,ESG Eugene Facility,Surface,CRH PLC,L00029,Eugene Sand & Gravel ,OR,Construction Sand and Gravel,5,8,1,0,9,Y,123.099166,44.095833,,,,,,0,N,N,N,N,N,Eugene,-123.099166
3500472,WCP Inc dba Commercial Redi-Mix ,Surface,WCP Incorporated,83544,Commercial Redi-Mix ,OR,Construction Sand and Gravel,5,8,1,0,5,Y,123.098333,44.919722,,,,,,0,N,N,N,N,N,Salem,-123.098333
3503356,Plant #1,Surface,Aggregate Resource Industries Inc,117994,"Aggregate Resource Crushing, LLC",OR,"Crushed, Broken Stone NEC",5,8,1,0,6,Y,123.086667,44.051944,,,,,,0,N,N,N,N,N,Cottage Grove,-123.086667
3503746,Portable 1,Surface,Brent  Kerr,108985,Columbia Northwest Recycling Inc.,OR,"Crushed, Broken Stone NEC",5,10,2,0,3,Y,123.076111,45.471944,,,,,,0,N,N,N,N,N,Cornelius,-123.076111
4503473,Manke Family Res LP Johns Prairie Mine,Surface,Manke Family Resources & Tacoma Timber Company,L18181,Manke Family Resources LP,WA,Construction Sand and Gravel,5,9,1,0,9,Y,123.067778,47.232778,,,,,,0,N,N,N,N,N,Shelton,-123.067778
3500515,Wildish Sand & Gravel Co Plant #2,Surface,Wildish Land Company,L02579,Wildish Sand & Gravel Co,OR,Construction Sand and Gravel,5,8,1,0,12,Y,123.066666,44.11,,,,,,0,N,N,N,N,N,Eugene,-123.066666
3500503,Keizer Pit & Plant,Surface,J Scott  Erickson,L39862,Viesko Redi Mix Inc,OR,Construction Sand and Gravel,5,8,1,0,4,Y,123.058333,44.998611,,,,,,0,N,N,N,N,N,Keizer,-123.058333
3501064,ESG Coburg Facility,Surface,CRH PLC,L00029,Eugene Sand & Gravel,OR,Construction Sand and Gravel,5,9,2,0,13,Y,123.057222,44.1225,,,,,,0,N,N,N,N,N,Eugene,-123.057222
3503658,Egge Quarry,Surface,Vernon L  Egge,79683,Coburg Road Quarry LLC,OR,"Crushed, Broken Stone NEC",5,8,1,0,6,Y,123.053888,44.119444,,,,,,0,N,N,N,N,N,Eugene,-123.053888
3503425,Windsor Rock Products,Surface,James A  Monaghan,L14774,Windsor Rock Products ,OR,"Crushed, Broken Stone NEC",5,8,1,0,18,Y,123.050837,45.043313,,,,,,0,N,N,N,N,N,Keizer,-123.050837
4502286,Bayshore Pit,Surface,Dietz  Kadoun,107905,Bayshore Sand & Gravel,WA,Construction Sand and Gravel,5,8,0,0,1,Y,123.045833,47.249167,,,,,,0,N,N,N,N,N,Shelton,-123.045833
404981,"Diamond T Natural Resources, LLC",Surface,Wendel  Trappe,L31541,"Canyon Rock Co., Inc",CA,Construction Sand and Gravel,5,8,1,0,6,Y,123.045555,38.475277,,,,,,0,N,N,N,N,N,CAZADERO,-123.045555
4503556,Portable Crusher,Surface,John R  Moerke,L16693,Alderbrook Quarry Inc,WA,"Crushed, Broken Stone NEC",5,8,1,0,2,Y,123.033889,46.580556,,,,,,0,N,N,N,N,N,Chehalis,-123.033889
3500557,VIESKO PIT AND PLANT,Surface,J Scott  Erickson,L39862,Viesko Redi Mix Inc,OR,Construction Sand and Gravel,5,10,1,0,7,Y,123.031944,45.095833,,,,,,2,N,N,N,N,N,Brooks,-123.031944
3503444,Crabtree Pit,Surface,Richard  Jonas,122614,"Crabtree Crushing, Inc",OR,"Crushed, Broken Stone NEC",6,9,1,0,13,Y,123.026111,45.272777,,,,,,0,N,N,N,N,Y,DUNDEE,-123.026111
3502968,Reed Pit,Surface,MDU Resources Group Inc,L16679,Knife River Corporation - Northwest,OR,Construction Sand and Gravel,7,12,2,0,9,Y,123.013889,45.059167,,,,,,0,N,N,N,N,N,tangent,-123.013889
404900,La Grange Mine,Surface,Larry E  Yingling,L09730,Eagle Rock Inc,CA,Dimension Stone NEC,6,8,1,0,9,Y,123.003333,40.734444,,,,,,0,N,N,N,N,N,Yreka,-123.003333
1200023,Delphi Limestone Company,Surface,Heritage Group,L02006,"U S Aggregates, Inc.",IN,"Crushed, Broken Limestone NEC",5,12,2,0,32,Y,122.996666,46.973333,,,,,,0,N,N,N,N,N,Delphi,-122.996666
4501429,PIT #1,Surface,Mark John  Dulin,L12435,Dulin Construction Inc,WA,Construction Sand and Gravel,5,8,1,0,5,Y,122.992777,46.756632,,,,,,0,N,N,N,N,N,Centralia,-122.992777
3503378,Willow Creek Aggregate,Surface,Michael Ray  Hilton,L34279,Hilton Fuel & Supply Company,OR,"Crushed, Broken Stone NEC",5,8,1,0,2,Y,122.976389,42.383889,,,,,,0,N,N,N,N,N,Central Point,-122.976389
3500631,Ellendale Portable Crusher,Surface,CRH PLC,L00029,Valley Concrete & Gravel Co.,OR,"Crushed, Broken Stone NEC",5,8,1,0,4,Y,122.974166,44.898611,,,,,,0,N,N,N,N,N,Dallas,-122.974166
3502761,Portable Rock Production Co. Sears Pit,Surface,Lonny  Bessett,L01183,Portable Rock Production Company Inc,OR,"Crushed, Broken Stone NEC",5,8,1,0,4,Y,122.974005,43.982635,,,,,,0,N,N,N,N,N,Pleasant Hill,-122.974005
3502478,Turner Gravel Facility,Surface,CRH PLC,L00029,River Bend Sand & Gravel Co.,OR,"Crushed, Broken Stone NEC",5,8,1,0,4,Y,122.963337,44.846193,,,,,,0,N,N,N,N,N,Turner,-122.963337
3503496,Portable 1,Surface,MDU Resources Group Inc,L16679,Knife River Corporation-Northwest,OR,"Crushed, Broken Stone NEC",5,8,1,0,2,Y,122.959444,42.421111,,,,,,0,N,N,N,N,N,Medford,-122.959444
3503667,Portable 3,Surface,MDU Resources Group Inc,L16679,Knife River Corporation-Northwest,OR,"Crushed, Broken Stone NEC",5,8,1,0,2,Y,122.959444,42.421111,,,,,,0,N,N,N,N,N,Central Point,-122.959444
3500512,Kirtland,Surface,MDU Resources Group Inc,L16679,Knife River Corporation - Northwest,OR,Construction Sand and Gravel,5,8,1,0,7,Y,122.958611,42.423333,,,,,,0,N,N,N,N,N,Medford,-122.958611
4503086,Good Portable Crusher,Surface,Alan Lee  Good,L10615,Good Crushing Inc,WA,Construction Sand and Gravel,5,8,1,0,2,Y,122.954722,46.538888,,,,,,0,N,N,N,N,N,Chehalis,-122.954722
4503261,BREEN PORTABLE NO.2,Surface,Sterling D  Breen,L10886,Sterling Breen Crushing Inc,WA,Construction Sand and Gravel,5,8,1,0,8,Y,122.952222,46.726388,,,,,,0,N,N,N,N,N,Centralia,-122.952222
3503467,Venable Pit,Surface,Edward J  Kernaghan,98945,"Southern Oregon Ready Mix, LLC",OR,"Crushed, Broken Stone NEC",5,8,1,0,4,Y,122.946111,42.415,,,,,,0,N,N,N,N,N,CENTRAL POINT,-122.946111
4503656,Portable #1,Surface,Rusty  Gill,123451,R.G. Crushing Inc.,WA,"Crushed, Broken Basalt",5,8,1,0,3,N,122.945556,46.649722,,,,,,0,N,N,N,N,N,Chehalis,-122.945556
4503234,Hard Rock Gardiner Pit,Surface,William  Arness,L18641,Hard Rock Inc,WA,Construction Sand and Gravel,5,8,1,0,1,Y,122.942778,48.055556,,,,,,0,N,N,N,N,N,Gardiner,-122.942778
400079,Canyon Rock Co Inc,Surface,Wendel  Trappe,L31541,Canyon Rock Co Inc,CA,"Crushed, Broken Stone NEC",6,10,1,0,10,Y,122.923333,38.514444,,,,,,0,N,N,N,N,N,Forestville,-122.923333
4503250,Sea Island Quarry,Surface,Rockwell B  Arnt,L16331,Sea Island Corp,WA,"Crushed, Broken Stone NEC",5,8,1,0,2,Y,122.920833,48.645833,,,,,,0,N,N,N,N,N,Eastsound,-122.920833
3503619,Plant #3,Surface,Chris  Galpin; John  Holmes,L18406,Southern Oregon Rock,OR,"Crushed, Broken Stone NEC",4,8,1,0,4,Y,122.918961,42.422014,,,,,,0,N,N,N,N,N,Eagle Point,-122.918961
4503698,Maytown Sand & Gravel,Surface,Robert R  Lloyd,L04848,"Lloyd Enterprises, Inc.",WA,Construction Sand and Gravel,4,8,1,0,4,Y,122.9125,46.888055,,,,,,0,N,N,N,N,N,Maytown,-122.9125
3503605,Waterview,Surface,MDU Resources Group Inc,L16679,Knife River Corporation - Northwest,OR,Construction Sand and Gravel,5,8,1,0,6,Y,122.909148,45.950106,,,,,,0,N,N,N,N,N,Deer Island,-122.909148
3500634,Farmington Pit,Surface,Gary T  Baker,L06838,Baker Rock Crushing Company,OR,"Crushed, Broken Traprock",5,8,1,0,33,Y,122.905026,45.457434,,,,,,0,N,N,N,N,N,Beaverton,-122.905026
4502700,JLS CRUSHER #2,Surface,Jerry L  Storedahl,L08232,J L Storedahl & Sons Inc,WA,Construction Sand and Gravel,5,8,1,0,8,Y,122.893611,46.118333,,,,,,0,N,N,N,N,N,Kelso,-122.893611
400276,Blue Rock Quarry,Surface,Dean  Soiland,L11084,BoDean Company Inc,CA,"Crushed, Broken Traprock",5,9,1,0,5,Y,122.882777,38.463611,,,,,,0,N,N,N,N,N,Santa Rosa,-122.882777
4503119,Hamilton Resources,Surface,Walt  Miles,L00797,Miles Sand & Gravel,WA,Construction Sand and Gravel,5,8,1,0,6,Y,122.87603,46.842848,,,,,,0,N,N,N,N,N,Tenino,-122.87603
3500798,Scappoose Sand & Gravel Company,Surface,Scott T  Parker,L38260,Scappoose Sand & Gravel Company,OR,Construction Sand and Gravel,5,8,1,0,4,Y,122.873055,45.766666,,,,,,3,N,N,N,N,N,Scappoose,-122.873055
401700,Healdsburg Main Plant,Surface,James M  Syar,L01976,Syar Industries Inc,CA,Construction Sand and Gravel,5,8,1,0,12,Y,122.855555,38.603888,,,,,,0,N,N,N,N,N,healdsberg,-122.855555
3500525,Santosh DBA CalPortland,Surface,Taiheiyo Cement Corp,L11900,CalPortland Company,OR,Construction Sand and Gravel,5,8,1,1,38,Y,122.851388,45.787222,,,,,,0,N,N,N,N,N,Portland,-122.851388
3503438,Eagle Star Rock Products LLC,Surface,John L  Jersey II; Mike P  Wilkins,L18573,Eagle Star Rock Products LLC,OR,"Crushed, Broken Stone NEC",5,8,1,0,2,Y,122.839444,45.870833,,,,,,0,N,N,N,N,N,Portland,-122.839444
404744,Moores Gravel Inc,Surface,Richard S  Moore,118507,"Moore's Gravel, Inc",CA,"Crushed, Broken Stone NEC",5,8,1,0,2,Y,122.8275,41.348611,,,,,,0,N,N,N,N,N,siskiyou,-122.8275
3503527,MBI Portable Crusher #2,Surface,MDU Resources Group Inc,L16679,Knife River Corporation - Northwest,OR,"Crushed, Broken Stone NEC",5,8,1,1,5,Y,122.815277,45.870555,,,,,,0,N,N,N,N,N,Lebanon,-122.815277
4503599,Bear Creek,Surface,Stephen J  Johnson,51163,Peninsula Topsoil,WA,"Sand, Common",5,10,1,0,9,Y,122.814444,47.496944,,,,,,0,N,N,N,N,N,Belfair,-122.814444
3503418,Northfork Excavating Incorporated,Surface,Debbie J  Eaton,L14078,Northfork Excavating Inc,OR,"Crushed, Broken Stone NEC",4,10,1,0,5,Y,122.813611,45.351388,,,,,,0,N,N,N,N,N,Sherwood,-122.813611
3503608,Crusher #4,Surface,Lloyd  Town,L01520,Meisel Rock Products,OR,"Crushed, Broken Stone NEC",5,8,1,0,4,Y,122.80584,45.341632,,,,,,0,N,N,N,N,N,McMinnville,-122.80584
3503022,Coffee Lake Pond,Surface,MDU Resources Group Inc,L16679,Knife River Corporation - Northwest,OR,"Crushed, Broken Traprock",5,8,1,0,18,Y,122.803169,45.351472,,,,,,0,N,N,N,N,N,Portland,-122.803169
3503429,104  Portable,Surface,A J  Urbanek,56397,Tigard Sand & Gravel LLC,OR,"Crushed, Broken Stone NEC",5,10,1,0,7,Y,122.799593,45.36428,,,,,,1,N,N,N,N,N,Tualatin,-122.799593
3500521,Stayton Rock Pit,Surface,MDU Resources Group Inc,L16679,Knife River Corporation - Northwest,OR,Construction Sand and Gravel,5,10,1,0,1,Y,122.794444,44.789166,,,,,,0,N,N,N,N,N,tangent,-122.794444
4500670,Olympia Sand & Gravel,Surface,Walt  Miles,L00797,Miles Sand & Gravel Company,WA,Construction Sand and Gravel,5,8,1,0,4,Y,122.793214,47.062182,,,,,,4,N,N,N,N,N,Lacey,-122.793214
3503659,Rivergate,Facility,Ridgely H  Gilmour; Mark A  Gilmour,78223,Gilmour and Company,OR,Lime,5,8,2,0,13,Y,122.784167,45.622778,,,,,,0,N,N,N,N,N,St. Johns,-122.784167
3500320,RIVERGATE PLANT,Facility,Ash Grove Cement Company,L02019,Ash Grove Cement Company,OR,"Crushed, Broken Limestone NEC",5,8,2,1,46,Y,122.784166,45.622777,,,,,,0,N,N,N,N,N,Portland,-122.784166
4502316,Cotton Pit & Plant,Surface,John T  Shold,L05502,Shold Excavating Inc Cotton Redi Mix,WA,Construction Sand and Gravel,5,8,1,0,5,Y,122.7675,48.024444,,,,,,0,N,N,N,N,N,Port Hadlock,-122.7675
4502661,Fazio Bros Sand Co Inc,Surface,Richard G  Fazio,L33197,Fazio Bros Sand Co Inc,WA,Construction Sand and Gravel,5,8,1,0,1,Y,122.751666,45.713333,,,,,,0,N,N,N,N,N,Vancouver,-122.751666
4503286,Columbia River Carbonates (Woodland Mill,Facility,Northwest Carbonates; Bleeck Management,L09028,Columbia River Carbonates,WA,"Crushed, Broken Marble",7,8,3,0,57,Y,122.743991,45.904559,,,,,,0,N,N,N,N,N,Woodland,-122.743991
400284,"Soiland Co., Inc.",Surface,Marvin K  Soiland,L10196,"Soiland Co., Inc.",CA,"Crushed, Broken Stone NEC",5,8,1,0,11,Y,122.736666,38.321944,,,,,,0,N,N,N,N,N,STONEY POINT,-122.736666
4503307,Circle C Rock Products,Surface,Netta E  Groat,L16777,Circle C Rock Products,WA,Construction Sand and Gravel,5,8,1,0,5,Y,122.731227,45.861299,,,,,,0,N,N,N,N,N,Ridgefield,-122.731227
3503433,Tucker Hill Mill,Facility,Seven Peaks Mining,L16895,Cornerstone Industrial Minerals,OR,Perlite,5,8,2,0,26,N,122.726944,45.548888,,,,,,0,N,N,N,N,N,Lakeview,-122.726944
4503285,Port of Vancouver DBA CalPortland,Surface,Taiheiyo Cement Corp,L11900,CalPortland Company,WA,Construction Sand and Gravel,5,8,1,0,14,Y,122.723004,45.644876,,,,,,0,N,N,N,N,N,Vancouver,-122.723004
3503290,Panther Crushing Portable,Surface,William D Link Trust,L37062,Panther Crushing Inc,OR,"Crushed, Broken Stone NEC",5,8,0,1,2,Y,122.722222,42.461944,,,,,,0,N,N,N,N,N,Brownsboro,-122.722222
3503508,Canby Pit,Surface,Cemex S A,103149,CEMEX Construction Materials Pacific LLC,OR,"Crushed, Broken Stone NEC",5,10,1,0,10,Y,122.721111,45.241389,,,,,,0,N,N,N,N,N,Redmond,-122.721111
3500497,Canby Sand & Gravel Co,Surface,Parker-Northwest Inc,L02395,Parker Northwest Paving Co Inc,OR,"Crushed, Broken Stone NEC",5,10,1,0,6,Y,122.713889,45.253611,,,,,,0,N,N,N,N,N,Canby,-122.713889
4500637,Nisqually Pit,Surface,Stephen  Nielsen; David  Nielsen,L04125,Holroyd Co Inc,WA,Construction Sand and Gravel,5,10,1,1,18,Y,122.708811,47.049874,,,,,,3,N,N,N,N,N,Olympia,-122.708811
4503177,ACE QUARRY,Surface,Richard N  Christopherson,L00676,Ace Paving Company Inc,WA,Construction Sand and Gravel,5,8,1,0,7,Y,122.705,47.551944,,,,,,0,N,N,N,N,N,Bremerton,-122.705
3503532,Portable 1,Surface,Matthew  Chavarria,L18410,Chavarria Construction Inc,OR,"Crushed, Broken Stone NEC",5,8,1,0,2,Y,122.700833,44.958056,,,,,,0,N,N,N,N,N,silverton,-122.700833
4503363,KRMI Quarry,Surface,Patrick  Lockhart,L15049,Kitsap Reclamation & Materials Inc,WA,"Crushed, Broken Traprock",5,8,1,0,9,Y,122.691944,47.533056,,,,,,0,N,N,N,N,N,Gorst,-122.691944
4502816,Shine Facility,Surface,Walt  Miles,L00797,Miles Sand and Gravel Company,WA,Construction Sand and Gravel,5,8,1,0,16,Y,122.683491,47.925369,,,,,,0,N,N,N,N,N,Tenino,-122.683491
4503582,Rock Quarry,Surface,Garry R  Gardner,60424,Gardner Trucking,WA,"Crushed, Broken Stone NEC",5,8,1,0,2,Y,122.682222,46.330278,,,,,,1,N,N,N,N,N,Toutle,-122.682222
3503491,Meadows Rock,Surface,Mike  Wilkins,L17128,Wilkins Trucking Company Inc,OR,Construction Sand and Gravel,3,8,1,0,2,Y,122.680833,45.589444,,,,,,0,N,N,N,N,N,PORTLAND,-122.680833
3503670,X-Rock ,Surface,Richard G  Roberts; Jerry R  Becker,97285,X-Rock LLC,OR,"Crushed, Broken Stone NEC",5,9,1,0,4,Y,122.675278,44.789722,,,,,,0,N,N,N,N,N,Falls City,-122.675278
401930,Hidden Valley Sand & Gravel,Surface,Beverly  Van Pelt; Donald  Van Pelt,L14475,Clearlake Lava Inc,CA,Construction Sand and Gravel,5,8,1,0,3,Y,122.67193,39.026284,,,,,,0,N,N,N,N,N,CLEARLAKE OAKS,-122.67193
403425,Washington Mine,Underground,Timothy A  Callaway,57397,French Gulch (Nevada) Mining Corp,CA,Gold Ore,5,8,1,0,15,N,122.671389,40.718889,,VI,,,,0,N,N,N,N,N,French Gulch,-122.671389
4502854,Airport Pit,Surface,Walt  Miles,L08402,Port Orchard Sand & Gravel Company Inc,WA,Construction Sand and Gravel,5,8,1,0,5,Y,122.665833,47.430833,,,,,,0,N,N,N,N,N,Port Orchard,-122.665833
403608,Pt Lakeview Rock & Redi Mix,Surface,Beverly  Van Pelt; Donald  Van Pelt,L14475,Clearlake Lava Inc,CA,Pumice,5,8,1,0,12,N,122.6625,38.927222,,,,,,0,N,N,N,N,N,clearlake,-122.6625
3500540,Ross Island Plant ,Surface,R B Pamplin Corp,L37998,Ross Island Sand & Gravel Company,OR,Construction Sand and Gravel,5,8,1,,31,Y,122.657383,45.493145,,,,,,0,N,N,N,N,N,,-122.657383
400600,Mark West Quarry,Surface,Dean  Soiland,L11084,Bodean Co Inc,CA,"Crushed, Broken Stone NEC",5,8,1,0,8,Y,122.653055,38.5525,,,,,,1,N,N,N,N,N,SANTA ROSA,-122.653055
4503334,Dupont Pit,Surface,Taiheiyo Cement Corp,L11900,CalPortland Company,WA,Construction Sand and Gravel,5,8,2,0,57,Y,122.640555,47.122777,,,,,,0,N,N,N,N,N,Dupont,-122.640555
4502990,Prairie Gravel Pit,Surface,Curt A  Youderian,L10109,Ed's Construction,WA,Construction Sand and Gravel,5,8,1,0,4,Y,122.638055,48.197777,,,,,,0,N,N,N,N,N,Coupeville,-122.638055
405003,Jerico Products Inc,Surface,Michael  Lind; Barbara  Lind,L13561,Jerico Products Inc,CA,"Crushed, Broken Limestone NEC",5,8,1,0,31,Y,122.634166,38.234444,,,,,,0,N,N,N,N,N,PETALUMA,-122.634166
4500951,Island County RM,Surface,Walt  Miles,L06508,Concrete Nor'West,WA,Construction Sand and Gravel,5,8,1,0,5,Y,122.613888,48.356666,,,,,,0,N,N,N,N,N,Oak Harbor,-122.613888
4503481,Boulder Hill Pit,Surface,Walt  Miles,L06508,Concrete Nor'West,WA,"Crushed, Broken Stone NEC",1,10,1,0,3,Y,122.603611,48.361666,,,,,,0,N,N,N,N,N,Oak Harbor,-122.603611
4503406,Columbia Granite,Surface,James W  Gilmore,L16711,Columbia Granite LLC,WA,"Crushed, Broken Granite",5,10,1,0,7,Y,122.6025,46.844444,,,,,,0,N,N,N,N,N,Olympia,-122.6025
4502244,"Rempel Bro's Concrete, Inc.",Surface,Edward L  Rempel; David B  Walden,81724,"Rempel Bro's Concrete, Inc.",WA,Construction Sand and Gravel,5,8,1,0,5,Y,122.595833,48.153611,,,,,,0,N,N,N,N,N,Greenbank,-122.595833
3503260,Harvey W Buche Road Building Inc,Surface,Harvey W  Buche,51240,Harvey W Buche Road Building Inc,OR,"Crushed, Broken Stone NEC",5,10,1,0,4,Y,122.587777,45.096944,,,,,,0,N,N,N,N,N,Molalla,-122.587777
4503293,Lewisville Pit,Surface,Cemex S A,51582,Pacific Rock Products LLC,WA,Construction Sand and Gravel,5,8,1,0,7,Y,122.560987,45.764368,,,,,,1,N,N,N,N,N,Vancouver,-122.560987
4503622,"Winston Quarry, Inc.",Surface,Bart  Lyons,77686,Winston Quarry Inc. ,WA,Construction Sand and Gravel,5,8,1,0,2,Y,122.556388,46.510833,,,,,,0,N,N,N,N,N,Onalaska,-122.556388
401036,CLEARLAKE LAVA,Surface,Beverly  Van Pelt; Donald  Van Pelt,L14475,Clearlake Lava Inc,CA,Pumice,5,8,1,0,12,N,122.546944,38.984444,,,,,,0,N,N,N,N,N,CLEARLAKE,-122.546944
3500522,Portland Road and Driveway Co Inc,Surface,Thomas R  Bright,L02547,Portland Road and Driveway Co Inc,OR,Construction Sand and Gravel,5,8,1,0,6,Y,122.546389,45.403056,,,,,,0,N,N,N,N,N,Clackamas,-122.546389
4503089,English Pit,Surface,Cemex S A,51582,Pacific Rock Products LLC,WA,Construction Sand and Gravel,5,8,1,0,6,Y,122.526111,45.621111,,,,,,3,N,N,N,N,N,Camas,-122.526111
4502166,Lehigh Northwest Cement Company,Facility,Heidelberg Cement AG,86244,Lehigh Northwest Cement Company,WA,Cement,5,8,2,0,11,Y,122.524699,48.769183,,,,,,0,N,N,N,N,N,Bellingham,-122.524699
4503281,Roy,Surface,Walt  Miles,L00797,Miles Sand & Gravel Co Inc,WA,Construction Sand and Gravel,5,8,1,1,8,Y,122.500556,46.978611,,,,,,0,N,N,N,N,N,Roy,-122.500556
3503771,Ball Road Quarry,Surface,Gary T  Baker,L06838,Baker Rock Resources,OR,"Crushed, Broken Basalt",5,10,1,0,10,N,122.490556,45.114444,,,,,,0,N,N,N,N,N,Molalla,-122.490556
4503173,Rock Plant,Surface,Nick L.  Seegert Jr.,81084,Seegert Crushing Inc,WA,"Crushed, Broken Stone NEC",5,8,1,0,3,Y,122.475277,48.165833,,,,,,0,N,N,N,N,N,CAMANO ISLAND,-122.475277
3503297,Plant 1 J Davidson & Sons Const Co Inc,Surface,David J  Davidson; Jerald M  Davidson,L34589,J Davidson & Sons Construction Company Inc,OR,"Crushed, Broken Traprock",5,8,1,0,3,Y,122.467778,43.739722,,,,,,0,N,N,N,N,N,Oakridge,-122.467778
3503420,Plant 2 J Davidson & Sons Const Co Inc,Surface,David J  Davidson; Jerald M  Davidson,L34589,J Davidson & Sons Construction Company Inc,OR,"Crushed, Broken Stone NEC",5,8,1,0,4,Y,122.467777,43.739722,,,,,,0,N,N,N,N,N,Oakridge,-122.467777
3500495,Gresham Sand & Gravel Co,Surface,MDU Resources Group Inc,L16679,Knife River Corporation - Northwest,OR,Construction Sand and Gravel,5,8,1,0,13,Y,122.462763,45.505877,,,,,,0,N,N,N,N,N,Gresham,-122.462763
405096,KETT SIDING,Surface,Jerry D  Comingdeer,L32237,Crystal Creek Aggregate Inc,CA,Construction Sand and Gravel,5,8,1,0,4,Y,122.4625,40.606944,,,,,,0,N,N,N,N,N,REDDING,-122.4625
4503707,Axton Pit,Surface,Steven B  Cowden,L32169,"Cowden, Inc.",WA,Construction Sand and Gravel,5,9,1,0,2,Y,122.460277,48.85,,,,,,0,N,N,N,N,N,Bellingham,-122.460277
400021,San Rafael Rock Quarry,Surface,Bill T  Dutra,L14733,Dutra Materials,CA,"Crushed, Broken Stone NEC",6,8,1,0,25,Y,122.453333,37.984166,,,,,,0,N,N,N,N,N,San Rafael,-122.453333
3503537,Bluelake DBA CalPortland,Surface,Taiheiyo Cement Corp,L11900,CalPortland Company,OR,"Crushed, Broken Stone NEC",5,8,1,,3,Y,122.44871,45.559366,,,,,,,N,N,N,N,N,,-122.44871
4503269,Courtney Pit,Surface,Waldow Family Enterprises Inc,96685,North Clark Construction,WA,"Crushed, Broken Traprock",5,8,1,0,3,Y,122.43,45.902777,,,,,,0,N,N,N,N,N,Yacolt,-122.43
3503655,Rickard Rock Quarry,Surface,Donn (Ted) Theodore  Salka,76743,Farwest Portable Crushing Inc,OR,"Crushed, Broken Stone NEC",5,8,8,0,3,Y,122.4225,45.501111,,,,,,0,N,N,N,N,N,Gresham,-122.4225
400174,Guadalupe,Surface,Dan  Evans; Wayne  Evans,91225,Evans Brothers Inc,CA,"Crushed, Broken Sandstone",5,8,1,0,9,Y,122.419166,37.687222,,,,,,2,N,N,N,N,N,Brisbane,-122.419166
4501707,VASHON SAND AND GRAVEL dba CalPortland ,Surface,Taiheiyo Cement Corp,L11900,CalPortland Company,WA,Construction Sand and Gravel,5,8,1,0,6,Y,122.418611,47.380833,,,,,,0,N,N,N,N,N,Vashon,-122.418611
404146,Aggregate Products,Surface,John F  Shea,L16117,Aggregate Products,CA,Construction Sand and Gravel,5,8,1,,12,Y,122.416721,40.508905,,,,,,,N,N,N,N,N,,-122.416721
4503290,Tacoma Plant,Surface,Graymont Ltd,L11495,Graymont Western US Inc,WA,Lime,6,10,2,0,41,Y,122.3975,47.271111,,,,,,2,N,N,N,N,N,Fife,-122.3975
4503685,A & B Rock Pit,Surface,Brandon  Crabtree; Aaron  Crabtree,113745,"A & B Rock, Inc.",WA,Construction Sand and Gravel,5,8,1,0,4,Y,122.3975,48.891111,,,,,,2,N,N,N,N,N,Everson,-122.3975
405280,Westside Aggregate,Surface,William R  Schmitt,L14881,Westside Aggregate,CA,"Crushed, Broken Stone NEC",5,8,1,,4,Y,122.397137,40.507469,,,,,,,N,N,N,N,N,,-122.397137
402261,PILARCITOS QUARRY,Surface,Vulcan Materials Company,L16645,CalMat Co,CA,"Crushed, Broken Stone NEC",5,8,1,0,10,Y,122.392222,37.494722,,,,,,1,N,N,N,N,N,Half Moon Bay,-122.392222
405261,San Francisco Marine Plant,Surface,Heidelberg Cement AG,64607,"Hanson Aggregates Mid-Pacific, Inc.",CA,Construction Sand and Gravel,5,8,1,0,3,Y,122.377777,37.745555,,,,,,0,N,N,N,N,N,SAN FRANCISCO,-122.377777
3500483,Estacada Rock Products Inc,Surface,Allen M  Collins; David L.  Coffin,L33085,Estacada Rock Products Inc,OR,Construction Sand and Gravel,4,10,1,0,9,Y,122.358333,45.302778,,,,,,0,N,N,N,N,N,Estacada,-122.358333
4503561,Canyon Resources,Surface,Walt  Miles,L00797,Miles Sand and Gravel Company,WA,Construction Sand and Gravel,5,8,1,0,4,Y,122.356111,47.201388,,,,,,0,N,N,N,N,N,Puyallup,-122.356111
4500805,Seattle Plant,Facility,Lafarge S A,L18663,Lafarge North America Inc,WA,Cement,7,8,3,3,89,Y,122.345278,47.554444,,,,,,1,N,N,N,N,N,Seattle,-122.345278
4500359,Seattle Plant,Facility,Ash Grove Cement Company,L02019,Ash Grove Cement Company,WA,Cement,5,8,2,2,83,Y,122.3425,47.567222,,,,,,0,N,N,N,N,N,Seattle,-122.3425
4503633,Belleville,Surface,Walt  Miles,L06508,Concrete Nor'West,WA,Construction Sand and Gravel,5,8,1,0,3,Y,122.340277,48.526666,,,,,,0,N,N,N,N,N,Burlington,-122.340277
4503239,J A Jack & Sons,Facility,Sharon  Jack; Linda  Jack Liebich,L34568,J A Jack & Sons Inc,WA,Lime,4,10,3,0,27,Y,122.339444,47.553611,,,,,,0,N,N,N,N,N,Seattle,-122.339444
4503605,Portable C,Surface,David  Grainger,L11920,Aggregates West Inc,WA,Construction Sand and Gravel,5,8,1,0,3,Y,122.331111,48.953611,,,,,,0,N,N,N,N,N,Sumas,-122.331111
4503524,Simpson Pit,Surface,Dan L  Simpson,83264,Simpson Sand & Gravel,WA,Construction Sand and Gravel,5,8,1,0,4,Y,122.322777,48.123333,,,,,,0,N,N,N,N,N,Stanwood,-122.322777
4503069,Milton Pit,Surface,Robert R  Lloyd,L04848,"Lloyd Enterprises, Inc.",WA,Construction Sand and Gravel,5,8,1,0,15,Y,122.321389,47.26,,,,,,0,N,N,N,N,N,Tacoma,-122.321389
400034,Redding Plant,Surface,Heidelberg Cement AG,L16900,Lehigh Southwest Cement Company,CA,Cement,7,8,2,1,73,Y,122.318056,40.7375,,,,,,0,N,N,N,N,N,Redding,-122.318056
405290,Fawndale Rock & Asphalt,Surface,John F  Shea,L15868,Fawndale Rock & Asphalt,CA,"Crushed, Broken Stone NEC",5,8,1,0,7,Y,122.317222,40.733888,,,,,,0,N,N,N,N,N,Redding,-122.317222
4500590,BUTLER PIT,Surface,Walt  Miles,L06508,Concrete Nor'West,WA,Construction Sand and Gravel,5,8,1,0,13,Y,122.311667,48.529722,,,,,,0,N,N,N,N,N,Marysville,-122.311667
405504,SWA @ Mountain Gate Quarry,Surface,Corkey  Harmon,84884,"Stimpel Wiebelhaus Associates, Inc.",CA,"Crushed, Broken Stone NEC",5,12,1,,17,Y,122.310051,40.734458,,,,,,,N,N,N,N,N,,-122.310051
4500844,Pacific Quarry,Surface,Martin Marietta Materials Inc,L16197,"Martin Marietta Materials, Inc",WA,"Crushed, Broken Stone NEC",5,8,1,0,5,Y,122.30019,48.382782,,,,,,3,N,N,N,N,N,Mt. Vernon,-122.30019
4503341,Siper Road Pit,Surface,Walt  Miles,L06508,Concrete Nor'West,WA,Construction Sand and Gravel,5,8,1,0,2,Y,122.296111,48.878333,,,,,,0,N,N,N,N,N,Mt. Vernon,-122.296111
4501111,Thun Field Pit,Surface,Scott D  Corliss,51079,Corliss Resources Inc,WA,Construction Sand and Gravel,5,8,1,0,10,Y,122.293056,47.149444,,,,,,1,N,N,N,N,N,Puyallup,-122.293056
4503593,Siper Quarry,Surface,Steven B  Cowden,L32169,"Cowden, Inc. ",WA,"Crushed, Broken Stone NEC",5,8,1,1,3,Y,122.293056,48.858611,,,,,,0,N,N,N,N,N,Everson,-122.293056
405753,Shasta Ranch Aggregates,Surface,Lyle  Tullis,L39649,"Tullis, Inc.",CA,Construction Sand and Gravel,5,1,1,0,5,Y,122.281666,40.455833,,,,,,0,N,N,N,N,N,Anderson,-122.281666
400023,Napa Quarry,Surface,James M  Syar,L01976,Syar Industries Inc,CA,"Sand, Industrial NEC",6,8,2,0,50,Y,122.275833,38.261944,,,,,,0,N,N,N,N,N,napa,-122.275833
405242,Napa Shop,Surface,James M  Syar,L01976,Syar Industries Inc,CA,"Crushed, Broken Stone NEC",5,8,1,0,50,Y,122.275833,38.261944,,,,,,0,N,N,N,N,N,napa,-122.275833
4502016,Lynch Creek Quarry LLC,Surface,David G  Randles,L14220,Lynch Creek Quarry LLC,WA,Construction Sand and Gravel,5,8,1,1,10,Y,122.260833,46.875278,,,,,,0,N,N,N,N,N,Eatonville,-122.260833
4503419,"IKO Pacific, Inc",Facility,Goldis Enterprises Inc,L17085,"IKO Pacific, Inc",WA,"Crushed, Broken Limestone NEC",3,12,1,0,3,Y,122.255,48.992777,,,,,,0,N,N,N,N,N,Sumas,-122.255
4503715,Turk Pit,Surface,Sandra  Forman,80044,"Pacific Topsoils, Inc.",WA,Construction Sand and Gravel,5,8,1,0,3,Y,122.255,48.075,,,,,,0,N,N,N,N,N,Marysville,-122.255
400170,Langley Hill Quarry ,Surface,Michael W  Dempsey; Patrick K  Dempsey,L35444,Langley Hill Quarry,CA,"Crushed, Broken Traprock",5,8,1,0,4,Y,122.247777,37.336111,,,,,,0,N,N,N,N,N,WOODSIDE,-122.247777
4503315,Manufacturers Mineral Co. Renton Plant,Surface,Jim  Anderson,L02691,Manufacturers Mineral Company,WA,Construction Sand and Gravel,5,8,1,0,10,Y,122.242778,47.467778,,,,,,0,N,N,N,N,N,Renton,-122.242778
4500577,Everett Pit & Plant,Surface,Cemex S A,103149,Cemex Construction Materials Pacific LLC,WA,Construction Sand and Gravel,5,8,1,1,10,Y,122.236586,47.939323,,,,,,0,N,N,N,N,N,Everett,-122.236586
403002,Oakland Marine Plant,Surface,Heidelberg Cement AG,64607,"Hanson Aggregates Mid-Pacific, Inc.",CA,Construction Sand and Gravel,5,10,1,0,6,Y,122.222287,37.764383,,,,,,0,N,N,N,N,N,Oakland,-122.222287
4503423,Fennel Resources ,Surface,Walt  Miles,L00797,Miles Sand & Gravel Company,WA,Construction Sand and Gravel,3,8,1,0,4,Y,122.216389,47.150278,,,,,,0,N,N,N,N,N,Auburn,-122.216389
4501237,Auburn Facility,Surface,CRH PLC,L00029,ICON Materials,WA,Construction Sand and Gravel,5,8,1,1,43,Y,122.202778,47.2725,,,,,,4,N,N,N,N,N,Auburn,-122.202778
4503455,King Creek Pit,Surface,Harry W  Hart,L40046,Washington Rock Quarries Inc,WA,Construction Sand and Gravel,5,8,1,1,6,Y,122.194722,47.037222,,,,,,0,N,N,N,N,N,Orting,-122.194722
4500975,Whatcom Portable Mill,Surface,Granite Construction Inc,L00039,Granite Construction Company,WA,Construction Sand and Gravel,5,8,1,0,4,Y,122.185555,47.996944,,,,,,2,N,N,N,N,N,BELLINGHAM,-122.185555
400726,Lake Herman Quarry,Surface,James M  Syar,L01976,Syar Industries Inc,CA,"Crushed, Broken Stone NEC",5,8,1,0,30,Y,122.181111,38.117222,,,,,,0,N,N,N,N,N,vallejo,-122.181111
404618,Valley Rock Products - Willows Plant,Surface,Shamrock Materials Inc,51441,Valley Rock Products,CA,Construction Sand and Gravel,5,8,1,,3,Y,122.169236,39.598948,,,,,,0,N,N,N,N,N,Willows,-122.169236
4503224,Kapowsin Quarry,Surface,Harry W  Hart,L40046,Washington Rock Quarries Inc,WA,"Crushed, Broken Traprock",5,8,1,0,9,Y,122.136667,47.043611,,,,,,0,N,N,N,N,N,Orting,-122.136667
404622,Valley Rock Products - Red Bluff Plant,Surface,Shamrock Materials Inc,51441,Valley Rock Products ,CA,Construction Sand and Gravel,3,8,1,0,2,Y,122.1225,40.016388,,,,,,0,N,N,N,N,N,Corning,-122.1225
401996,Valley Rock Products-Orland,Surface,Shamrock Materials Inc,51441,Valley Rock Products ,CA,Construction Sand and Gravel,5,8,2,,25,Y,122.111029,39.745906,,,,,,0,N,N,N,N,N,Orland,-122.111029
400107,Felton Quarry,Surface,Granite Construction Inc,L00039,Granite Construction Co,CA,"Crushed, Broken Granite",5,8,1,0,12,Y,122.098055,37.034722,,,,,,0,N,N,N,N,N,Felton,-122.098055
4500585,Cadman (Redmond),Surface,Heidelberg Cement AG,L13107,Cadman Inc,WA,Construction Sand and Gravel,5,8,1,0,20,Y,122.088611,47.675833,,,,,,0,N,N,N,N,N,Redmond,-122.088611
404075, Permanente Cement Plant & Quarry,Facility,Heidelberg Cement AG,L16900,Lehigh Southwest Cement Co.,CA,Cement,7,8,3,0,162,Y,122.086944,37.32,,,,,,2,N,N,N,N,N,Cupertino,-122.086944
405870,Permanente Rock Plant,Facility,Heidelberg Cement AG,L16900,Lehigh Southwest Cement Company,CA,"Crushed, Broken Stone NEC",5,8,1,1,12,Y,122.086944,37.32,,,,,,0,N,N,N,N,N,Cupertino,-122.086944
401676,Stevens Creek Quarry,Surface,Richard  Voss,L38771,Stevens Creek Quarry Inc,CA,"Crushed, Broken Stone NEC",5,8,1,0,49,Y,122.084444,37.296944,,,,,,0,N,N,N,N,N,Santa Clara,-122.084444
401782,Santa Cruz Sand Plant,Surface,Thomas H  Squeri,L01588,Granite Rock Company,CA,Construction Sand and Gravel,4,8,1,0,2,Y,122.083611,36.960277,,,,,,2,N,N,N,N,N,Santa Cruz,-122.083611
4503665,"Clauson Quarry, LLC",Surface,Steven B  Cowden,L32169,Cowden Inc,WA,"Crushed, Broken Stone NEC",5,8,1,0,3,Y,122.077778,48.971389,,,,,,0,N,N,N,N,N,Bellingham,-122.077778
403177,Quail Hollow Operation,Surface,Thomas H  Squeri,L01588,Granite Rock Company,CA,Construction Sand and Gravel,5,8,1,0,4,Y,122.058333,37.077777,,,,,,0,N,N,N,N,N,FELTON,-122.058333
4503489,Lake Frances Pit,Surface,Gary  Merlino; Don  Merlino,95106,"Quality Aggregates, LLC",WA,Construction Sand and Gravel,5,8,1,0,4,Y,122.043888,47.439722,,,,,,1,N,N,N,N,N,Mapel Valley,-122.043888
4503361,Wilkeson Sandstone Quarry LLC,Surface,Charles C  Nelson; Marilyn M  Nelson,L17227,Wilkeson Sandstone Quarry LLC,WA,"Crushed, Broken Sandstone",5,8,1,0,6,Y,122.030833,47.105278,,,,,,0,N,N,N,N,N,Wilkeson,-122.030833
4500652,Issaquah Pit & Plant,Surface,Lakeside Industries Inc.,92385,"Lakeside Industries, Inc",WA,Construction Sand and Gravel,2,8,1,0,2,Y,122.029722,47.486111,,,,,,0,N,N,N,N,N,Issaquah,-122.029722
4503110,Getchell Pit,Surface,Walt  Miles,L06508,Concrete Nor'west,WA,Construction Sand and Gravel,5,8,1,0,9,Y,122.021724,48.074061,,,,,,2,N,N,N,N,N,Snohomish,-122.021724
405338,Capay Plant Facility,Surface,Granite Construction Inc,L00039,Granite Construction Company,CA,Construction Sand and Gravel,5,8,1,0,3,Y,122.010277,38.715,,,,,,0,N,N,N,N,N,Esparto,-122.010277
3502382,Mt Hood Rock Products,Surface,Daniel J  Turin; Dennis P  Turin,L10140,Jim Turin & Sons Inc,OR,"Crushed, Broken Traprock",5,8,1,0,8,Y,122.008889,45.382778,,,,,,0,N,N,N,N,N,Brightwood,-122.008889
4503338,MORGAN KAME TERRACE,Surface,William  Kombol,L14129,Palmer Coking Coal Company LLP,WA,Construction Sand and Gravel,5,8,1,0,7,Y,122.006389,47.319722,,,,,,0,N,N,N,N,N,Black Diamond,-122.006389
4503374,White River Quarry,Surface,Taiheiyo Cement Corp,L13472,CalPortland Company,WA,"Crushed, Broken Stone NEC",5,8,1,0,10,Y,121.999722,47.193611,,,,,,0,N,N,N,N,N,Enumclaw,-121.999722
4501227,Cadman Black Diamond,Surface,Heidelberg Cement AG,L17936,Cadman (Black Diamond) Inc,WA,Construction Sand and Gravel,5,8,1,1,17,Y,121.993889,47.286389,,,,,,0,N,N,N,N,N,Black Diamond,-121.993889
405017,Esparto Plant,Surface,Teichert Inc,L06891,Teichert Aggregates,CA,Construction Sand and Gravel,5,8,2,0,13,Y,121.988056,38.730833,,,,,,0,N,N,N,N,N,esparto,-121.988056
400946,LEXINGTON QUARRY,Surface,Vulcan Materials Company,L16645,CalMat Co,CA,"Crushed, Broken Stone NEC",5,8,1,0,4,Y,121.981388,37.200555,,,,,,0,N,N,N,N,N,LOS GATOS,-121.981388
4501999,Cadman High Rock Quarry,Surface,Heidelberg Cement AG,L12266,Cadman (Rock) Inc,WA,"Crushed, Broken Traprock",6,8,1,0,32,Y,121.97464,47.81573,,,,,,0,N,N,N,N,N,Monroe,-121.97464
400159,Clayton,Surface,Heidelberg Cement AG,64607,"Hanson Aggregates Mid-Pacific, Inc.",CA,"Crushed, Broken Stone NEC",5,8,1,1,15,Y,121.957222,37.936666,,,,,,0,N,N,N,N,N,clayton,-121.957222
405303,Pine Creek Rock,Surface,Basic Resources Inc,L14168,7/11 Materials Inc,CA,Construction Sand and Gravel,5,8,1,0,4,Y,121.953253,39.879016,,,,,,0,N,N,N,N,N,chico,-121.953253
4500609,Enumclaw Pit & Plant,Surface,Scott D  Corliss,51079,Corliss Resources Inc,WA,Construction Sand and Gravel,5,5,1,0,10,Y,121.947222,47.196389,,,,,,3,N,N,N,N,N,Mapel Valley,-121.947222
400173,Clayton Plant,Surface,Cemex S A,103149,CEMEX Construction Materials Pacific LLC,CA,"Crushed, Broken Stone NEC",5,10,1,0,14,Y,121.942222,37.93,,,,,,0,N,N,N,N,N,CLAYTON,-121.942222
402763,Cache Creek Quarry,Surface,Cemex S A,110745,CEMEX Construction Materials LLC,CA,Construction Sand and Gravel,5,11,1,0,9,Y,121.941944,38.686111,,,,,,0,N,N,N,N,N,Woodland,-121.941944
4503405,Menzel Lake Gravel ,Surface,Robert E  Hild,L16730,Lake Industries LLC,WA,Construction Sand and Gravel,5,9,1,0,4,Y,121.939444,48.066944,,,,,,0,N,N,N,N,N,Marysville,-121.939444
4503424,Granite Falls Quarry,Surface,Cemex S A,103149,Cemex Construction Materials Pacific LLC,WA,Construction Sand and Gravel,5,8,1,1,4,Y,121.931111,48.117222,,,,,,0,N,N,N,N,N,Granite Falls,-121.931111
402263,Olive Springs Quarry Inc,Surface,Christine  Bone; Daniel  Harn,L36878,Olive Springs Quarry Inc,CA,"Crushed, Broken Stone NEC",5,8,1,0,8,Y,121.925277,37.054722,,,,,,0,N,N,N,N,N,Soquel,-121.925277
401859,Sunol Plant,Surface,Heidelberg Cement AG,L36376,Mission Valley Rock,CA,Construction Sand and Gravel,5,1,8,0,19,Y,121.880278,37.575833,,,,,,0,N,N,N,N,N,sunol,-121.880278
4502825,PALMER JUNCTION GRAVEL PIT-KANASKAT PIT,Surface,Cliff  Schroeder,L12861,"Watson Asphalt Paving Company, Inc.",WA,Construction Sand and Gravel,5,8,1,0,5,Y,121.879586,47.317896,,,,,,0,N,N,N,N,N,Redmond,-121.879586
4502189,Mt Si Quarry Inc,Surface,Thomas P Weber,L14082,Mt Si Quarry Inc,WA,"Crushed, Broken Stone NEC",5,8,1,0,3,Y,121.871235,47.509595,,,,,,0,N,N,N,N,N,Bellevue,-121.871235
402098,Sunol Aggregates,Surface,DeSilva Holding Co,120228,Sunol Aggregates,CA,Construction Sand and Gravel,5,10,1,1,10,Y,121.863889,37.569167,,,,,,0,N,N,N,N,N,SUNOL,-121.863889
405249,Jerico Products Incorporated,Surface,Michael  Lind; Barbara  Lind,L13561,Jerico Products Inc,CA,Misc. Nonmetallic Mnls. NEC,5,8,1,1,3,N,121.8525,38.088889,,,,,,0,N,N,N,N,N,Birds landing,-121.8525
401891,Eliot Plant,Surface,Cemex S A,103149,Cemex Construction Materials Pacific LLC,CA,Construction Sand and Gravel,5,0,0,1,16,Y,121.831111,37.6725,,,,,,0,N,N,N,N,N,Pleasanton,-121.831111
401924,Pleasanton Plant,Surface,Vulcan Materials Company,L16645,CalMat Co,CA,Construction Sand and Gravel,5,10,2,0,45,Y,121.826944,37.676667,,,,,,0,N,N,N,N,N,PLEASANTON,-121.826944
4503136,Snoqualmie S&G dba CalPortland Company,Surface,Taiheiyo Cement Corp,L11900,CalPortland Company,WA,Construction Sand and Gravel,5,8,1,0,29,Y,121.8125,47.551389,,,,,,0,N,N,N,N,N,Snoqualmie,-121.8125
401712,Morehead Pit,Surface,Darren  Morehead,L31360,Butte Sand & Gravel,CA,Construction Sand and Gravel,5,8,1,,17,Y,121.804535,39.154378,,,,,,0,N,N,N,N,N,Sutter,-121.804535
402843,Lapis Plant,Surface,Cemex S A,103149,Cemex Construction Materials Pacific LLC,CA,Construction Sand and Gravel,5,8,5,0,22,Y,121.799444,36.712222,,,,,,0,N,N,N,N,N,lapis,-121.799444
3503652,South Central Pumice LLC,Surface,Patrick J  Schaffner,74863,South Central Pumice LLC,OR,Pumice,5,8,1,0,3,N,121.794167,43.152222,,,,,,0,N,N,N,N,N,Chemult,-121.794167
404053,Dicalite Minerals Corp,Surface,Dicalite Management Group,L09047,Dicalite Minerals Corp,CA,Diatomaceous Earth (Diatomite),5,8,3,0,53,N,121.777222,41.017778,,,,,,0,N,N,N,N,N,Burney,-121.777222
405275,DECKER ISLAND ,Surface,Randy  Jensen; Thomas P.  Farrell Jr.,117786,D.I. Aggregate Management LLC,CA,Construction Sand and Gravel,5,6,1,0,3,Y,121.723611,38.094167,,,,,,0,N,N,N,N,N,Rio Vista,-121.723611
4503547,North Bend,Surface,Heidelberg Cement AG,L13107,Cadman Inc,WA,"Crushed, Broken Stone NEC",6,8,3,1,2,Y,121.705277,47.464166,,,,,,0,N,N,N,N,N,North Bend,-121.705277
403622,Kellog Creek Aggregates Inc,Surface,Sherri  Mognaga,108185,Kellog Creek Aggregates Inc,CA,Construction Sand and Gravel,5,8,1,0,5,Y,121.674444,37.86,,,,,,0,N,N,N,N,N,BYRON,-121.674444
401949,G3 Enterprises Byron Plant,Surface,Robert  Lubeck,119333,"G3 Enterprises, Inc.",CA,Construction Sand and Gravel,5,8,1,0,21,Y,121.669167,37.8625,,,,,,0,N,N,N,N,N,Byron,-121.669167
4503565,Green Crow Rock Products-Arlington Pit,Surface,Randall S  Johnson,52755,Green Crow Rock Products,WA,Construction Sand and Gravel,1,8,1,0,6,Y,121.660555,48.275,,,,,,1,N,N,N,N,N,Arilington,-121.660555
400119,A R Wilson Quarry,Surface,Thomas H  Squeri,L01588,Granite Rock Co,CA,"Crushed, Broken Granite",1,8,5,0,127,Y,121.634722,36.897222,,,,,,1,N,N,N,N,N,Aromas,-121.634722
405084,FRANKLIN SAND PLANT,Surface,John H  Franklin,L33370,Franklin Construction Inc,CA,Construction Sand and Gravel,5,8,1,0,3,Y,121.634166,39.648611,,,,,,0,N,N,N,N,N,CHICO,-121.634166
4503175,Iron Mountain Quarry ,Surface,James  Burnett; Lawrence P.  Hughes,L12791,Iron Mountain Quarry LLC,WA,"Crushed, Broken Traprock",5,8,1,0,18,Y,121.629707,48.051773,,,,,,0,N,N,N,N,N,Bothell,-121.629707
400156,NATIVIDAD PLANT,Surface,Lhoist Group,L13416,Lhoist North America of Arizona Inc.,CA,Lime,7,8,3,1,72,Y,121.603333,36.746944,,,,,,4,N,N,N,N,N,Salinas,-121.603333
405547,BCJ Sand and Rock Inc,Surface,James Bradley  Slender,50978,BCJ Sand and Rock Inc,CA,"Sand, Common",5,8,1,0,3,Y,121.588611,39.637778,,,,,,0,N,N,N,N,Y,Oroville,-121.588611
404847,TRP Table Mountain Plant,Surface,Vulcan Materials Company,L13967,Triangle Rock Products,CA,"Crushed, Broken Stone NEC",5,8,2,0,13,Y,121.582777,39.574166,,,,,,0,N,N,N,N,N,colusa,-121.582777
405354,WILLIAMS PIT,Surface,Richard  Voss,L38771,Stevens Creek Quarry Inc,CA,Construction Sand and Gravel,5,8,1,0,4,Y,121.575833,36.878333,,,,,,0,N,N,N,N,N,cupertino,-121.575833
405407,Morris Ravine Mine,Surface,MRLLC  Investors LTD,L17352,Mineral Resources LLC,CA,Construction Sand and Gravel,5,8,1,0,8,Y,121.547222,39.565,,,,,,0,N,N,N,N,N,oroville,-121.547222
405545,Dantoni Rd,Surface,Noble Debs  Plant,50891,Kino Aggregates Incorporated,CA,Construction Sand and Gravel,5,8,1,0,5,Y,121.517035,39.163137,,,,,,0,N,N,N,N,N,Marysville,-121.517035
401698,Hallwood Plant,Surface,MDU Resources Group Inc,L14838,Knife River Const.,CA,Construction Sand and Gravel,5,8,1,0,11,Y,121.509722,39.201388,,,,,,0,N,N,N,N,N,Marysville,-121.509722
405131,S.R.I. MARYSVILLE,Surface,Edward  Mallory; Marlys E  Greenhalgh,L38446,Silica Resources Inc,CA,Construction Sand and Gravel,5,8,1,,20,Y,121.451754,39.167318,,,,,,2,N,N,N,N,N,,-121.451754
404950,Western Aggregates LLC,Surface,Eagle Materials Inc,L03322,Western Aggregates LLC,CA,Construction Sand and Gravel,5,8,1,0,17,Y,121.450278,39.185556,,,,,,0,N,N,N,N,N,Marysville,-121.450278
401895,Tracy Kerlinger Plant,Surface,Cemex S A,103149,Cemex Construction Materials Pacific LLC,CA,Construction Sand and Gravel,5,8,1,1,11,Y,121.429166,37.680555,,,,,,0,N,N,N,N,N,Tracy,-121.429166
405629,Handley Ranch Quarry,Surface,Granite Construction Inc,L00039,Granite Construction Company,CA,"Crushed, Broken Stone NEC",5,8,1,0,7,Y,121.427222,36.565,,,,,,1,N,N,N,N,N,Gonzales,-121.427222
405403,STRINGER PIT,Surface,Edward  Mallory; Marlys E  Greenhalgh,L38446,"Silica Resources, Inc.",CA,Construction Sand and Gravel,5,8,1,0,1,Y,121.4225,39.220277,,,,,,0,N,N,N,N,N,BROWNS VALLEY,-121.4225
404647,PLANT 25,Surface,Donald D  Chapin Jr.,L16318,Don Chapin Company Inc,CA,Construction Sand and Gravel,5,8,1,0,6,Y,121.419167,36.893056,,,,,,0,N,N,N,N,N,Hollister,-121.419167
400562,FLORIN PLANT,Facility,GEO International,L08178,Industrial Minerals Company,CA,Common Clays NEC,5,8,2,1,19,Y,121.396944,38.493611,,,,,,0,N,N,N,N,N,SACRAMENTO,-121.396944
401680,Perkins Plant,Surface,Teichert Inc,L06891,Teichert Aggregates,CA,Construction Sand and Gravel,5,8,2,0,53,Y,121.377778,38.545,,,,,,0,N,N,N,N,N,Sacramento,-121.377778
405498,Sand Merchant,Surface,Saltchuck Resources Inc,50187,Foss Maritime Company,CA,"Sand, Common",5,12,1,0,12,Y,121.371111,37.906111,,,,,,0,N,N,N,N,N,richmond,-121.371111
400111,Cal Rock Products LLC,Surface,David P  Grimsley,52436,Cal Rock Products LLC,CA,"Crushed, Broken Limestone NEC",5,8,1,0,7,Y,121.368333,36.735556,,,,,,0,N,N,N,N,N,Hollister,-121.368333
3503566,Able Supply Portable,Surface,Kevin  Peterman,50852,Able Supply LLC,OR,"Crushed, Broken Stone NEC",4,8,1,0,7,Y,121.360833,43.979166,,,,,,0,N,N,N,N,N,Bend,-121.360833
402792,Vernalis Plant,Surface,Teichert Inc,L06891,Teichert Aggregates,CA,Construction Sand and Gravel,5,8,1,1,39,Y,121.359444,37.621944,,,,,,0,N,N,N,N,N,tracy,-121.359444
3502931,Cake Pit,Surface,Eric W  Coats,51052,Shevlin Sand & Gravel LLC,OR,Construction Sand and Gravel,5,8,1,0,12,Y,121.352175,44.097636,,,,,,1,N,N,N,N,N,Bend,-121.352175
405783,Vernalis Plant,Surface,Granite Construction Inc,L00039,Granite Construction Company,CA,"Sand, Industrial NEC",5,10,1,1,20,Y,121.346388,37.602777,,,,,,0,N,N,N,N,N,Vernalis,-121.346388
401906,Patterson Plant,Surface,Cemex S A,103149,CEMEX Construction Materials Pacific LLC,CA,Construction Sand and Gravel,5,10,1,1,5,Y,121.344722,39.020278,,,,,,0,N,N,N,N,N,placer,-121.344722
404149,Parks Bar Quarry,Surface,Jens  Karlshoej,L11049,Nordic Industries Inc,CA,"Crushed, Broken Stone NEC",5,8,1,0,7,Y,121.337778,39.221389,,,,,,0,N,N,N,N,N,Marysville,-121.337778
403107,Bradshaw ,Surface,Granite Construction Inc,L00039,Granite Construction Company,CA,Construction Sand and Gravel,5,8,1,0,5,Y,121.334444,38.548888,,,,,,2,N,N,N,N,N,Sacramento,-121.334444
405459,Knife River Construction Vernalis Plant,Surface,MDU Resources Group Inc,L17655,Knife River Construction,CA,Construction Sand and Gravel,5,8,1,1,11,Y,121.333055,37.617222,,,,,,1,N,N,N,N,N,TRACY,-121.333055
405164,Southside Sand And Gravel,Surface,Thomas H  Squeri,L01588,Granite Rock Company,CA,Construction Sand and Gravel,5,8,1,0,6,Y,121.331389,36.796944,,,,,,2,N,N,N,N,N,Hollister,-121.331389
404165,Glass Mountain Pumice,Surface,Quikrete Holdings Inc.,122411,"Monarch Mountain Minerals & Aggregates, LLC",CA,Pumice,5,10,1,0,7,N,121.3275,41.644444,,,,,,0,N,N,N,N,N,Glass Mountain,-121.3275
3503519,PORTABLE # 3,Surface,Ron  Robinson Jr,L15996,4 R Equipment LLC,OR,"Crushed, Broken Stone NEC",5,8,1,0,5,Y,121.314166,44.058611,,,,,,0,N,N,N,N,N,Alfalfa,-121.314166
405330,Mossdale Plant,Surface,Robert H  Brown Jr,L10246,Brown Sand Inc,CA,Construction Sand and Gravel,5,8,1,0,18,Y,121.313888,37.771388,,,,,,0,N,N,N,N,N,70,-121.313888
400491,GMcB Lincoln Pits & Mill,Surface,Pacific Coast Building Products Inc,L00969,Gladding McBean,CA,Fire Clay,5,8,1,0,4,Y,121.291666,38.894444,,,,,,0,N,N,N,N,N,LINCOLN,-121.291666
404772,TRP-Sacramento Plant,Surface,Vulcan Materials Company,L13967,Triangle Rock Products,CA,Construction Sand and Gravel,5,8,1,0,17,Y,121.251666,38.496666,,,,,,0,N,N,N,N,N,Sacramento,-121.251666
405601,Renewable Resources,Surface,Robert F  Enz,52877,Renewable Resources,CA,Construction Sand and Gravel,5,8,1,0,5,Y,121.239722,36.702222,,,,,,0,N,N,N,N,N,Paicines,-121.239722
405653,Hidden Canyon Quarry,Surface,Mark  Schipper; Peter  Schipper,L06319,San Benito Supply,CA,Construction Sand and Gravel,5,10,1,0,5,Y,121.226944,36.354167,,,,,,0,N,N,N,N,N,Greenfield,-121.226944
3503312,Sunrock Quarry,Surface,Randy D  Munsen,L36562,Munsen Paving LLC,OR,"Crushed, Broken Stone NEC",5,8,1,0,3,Y,121.210555,45.6425,,,,,,0,N,N,N,N,N,The Dalles,-121.210555
3500037,Portable Crushing,Surface,John C  Bryant,L01096,"J Arlie Bryant, Inc.",OR,"Crushed, Broken Stone NEC",5,9,1,0,5,Y,121.207777,45.612222,,,,,,0,N,N,N,N,N,The Dalles,-121.207777
3503518,Cinder Butte Rock Products,Surface,Joy  Foss,L18021,Cinder Butte Rock Products,OR,"Crushed, Broken Stone NEC",5,8,1,0,1,Y,121.190277,44.307222,,,,,,0,N,N,N,N,N,DESCHUTES,-121.190277
4501882,Circle T Ranch Pit,Surface,Granite Construction Inc,L00039,Granite Construction Company,WA,Construction Sand and Gravel,5,10,1,0,3,Y,121.154444,45.635278,,,,,,0,N,N,N,N,N,Dallesport,-121.154444
3503311,Portable Screening Plant,Surface,Howard  Houston,L01820,"Hood River Sand & Gravel Redi Mix, Inc.",OR,Construction Sand and Gravel,5,9,1,0,3,Y,121.1475,45.624166,,,,,,0,N,N,N,N,N,HOOD RIVER,-121.1475
401774,Marks Pit ,Surface,Bernhard H  Marks; Henry W  Marks,L33352,Frank B Marks & Son Inc,CA,Construction Sand and Gravel,5,8,1,0,9,Y,121.090278,37.334167,,,,,,0,N,N,N,N,N,newman,-121.090278
405250,Mule Shoe Mine,Facility,Charles E  Hinkle,L14070,Buffalo Gypsum Inc,CA,Gypsum,6,8,1,0,5,N,121.020556,36.354722,,,,,,0,N,N,N,N,N,King City,-121.020556
405561,Bianchi Pit,Surface,Tim L  Winsor,L40337,Winsor Construction Inc,CA,Construction Sand and Gravel,5,8,1,0,5,Y,121.019166,35.578611,,,,,,0,N,N,N,N,N,Cambria,-121.019166
405503,Cool Cave Quarry,Surface,Teichert Inc,L06891,Teichert Aggregates,CA,"Crushed, Broken Limestone NEC",5,8,1,0,8,Y,121.013611,38.903333,,,,,,0,N,N,N,N,N,COOL,-121.013611
405845,Newman Minerals No.1,Surface,John C  Telischak; William  Bunce,123030,Newman Minerals LLC,CA,"Sand, Industrial NEC",5,8,1,1,17,Y,120.997222,38.37,,,,,,0,N,N,N,N,N,ione,-120.997222
402696,Munn & Perkins Pit  & Mill,Surface,Basic Resources Inc,L00966,Munn & Perkins,CA,Construction Sand and Gravel,5,8,1,0,11,Y,120.973333,37.760833,,,,,,0,N,N,N,N,N,ESCALON,-120.973333
4500671,Avery Pit,Surface,R B Pamplin Corp,L18224,Pacific Northwest Aggregates Inc,WA,Construction Sand and Gravel,5,8,1,0,4,Y,120.966389,45.657222,,,,,,0,N,N,N,N,N,Wishram,-120.966389
403761,Jackson Valley Quarry,Surface,Basic Resources Inc,L00966,George Reed Inc,CA,"Crushed, Broken Stone NEC",5,9,1,0,11,Y,120.963611,38.306944,,,,,,0,N,N,N,N,N,Ione,-120.963611
405660,Irish Hill Portable Plant No. 1,Surface,John C  Telischak; William  Bunce,123030,"Newman Minerals, LLC",CA,Construction Sand and Gravel,5,8,1,0,3,Y,120.963333,38.383888,,,,,,0,N,N,N,N,N,Ione,-120.963333
405532,Ione Minerals,Surface,David E  Jenkins,50674,Ione Minerals,CA,Common Clays NEC,5,8,2,1,6,Y,120.948055,38.334722,,,,,,0,N,N,N,N,N,Ione,-120.948055
4502011,Blockhouse Butte Mine,Surface,Martin  Ruiter,134294,"Martin's Feed, Inc.",WA,Construction Sand and Gravel,5,8,1,0,3,Y,120.946667,45.851111,,,,,,0,N,N,N,N,N,"Goldendale, WA",-120.946667
403138,GREENHORN PIT & MILL,Surface,Hansen Brothers Enterprises,L01634,Hansen Brothers Enterprises,CA,Construction Sand and Gravel,5,8,1,0,8,Y,120.93,39.205833,,,,,,0,N,N,N,N,N,grass valley,-120.93
405533,Specialty Granules (Ione)  LLC,Surface,Specialty Granules Inc,50626,Specialty Granules (Ione) LLC,CA,Construction Sand and Gravel,5,8,2,1,74,Y,120.918611,38.343611,,,,,,0,N,N,N,N,N,ione,-120.918611
405163,Plymouth Sand & Gravel,Surface,Gordon  Vicini,L37305,Plymouth Sand & Gravel,CA,Construction Sand and Gravel,5,8,1,1,6,Y,120.898888,38.449722,,,,,,0,N,N,N,N,N,plymouth,-120.898888
401843,TRP-Los Banos Plant,Surface,Vulcan Materials Company,L13967,Triangle Rock Products,CA,Construction Sand and Gravel,5,8,1,0,15,Y,120.8925,37.0275,,,,,,1,N,N,N,N,N,Los Banos,-120.8925
3503648,PRINEVILLE PIT #1,Surface,Mark  Stafford,74066,ROCK PRODUCTS MFG INC,OR,"Crushed, Broken Stone NEC",5,8,1,0,3,Y,120.871944,44.322778,,,,,,0,N,N,N,N,N,PRINEVILLE,-120.871944
404635,Whale Rock Quarry,Surface,Jon P Negranti,L36634,Negranti & Sons,CA,"Crushed, Broken Stone NEC",5,8,1,0,5,Y,120.861962,35.452436,,,,,,0,N,N,N,N,N,Cayucos,-120.861962
4500631,Toppenish Facility,Surface,CRH PLC,L00029,Central Pre-Mix Concrete Co,WA,Construction Sand and Gravel,5,8,1,1,4,Y,120.848611,46.390278,,,,,,3,N,N,N,N,N,Toppenish,-120.848611
401299,Sixteen To One Mine,Underground,Michael M Miller,L09340,Original Sixteen To One Mine Inc,CA,Gold Ore,5,8,1,0,4,N,120.845556,39.465556,,VI,,,,0,N,N,N,N,N,Allegheny,-120.845556
404819,HOGAN QUARRY,Surface,Estate of Robert Jones,L12863,Foothill Materials,CA,"Crushed, Broken Stone NEC",5,8,1,0,6,Y,120.826944,38.147222,,,,,,0,N,N,N,N,N,VALLEY SPRINGS,-120.826944
405038,LINCOLN MINE PROJECT,Underground,Sutter Gold Mining Inc,L15671,Sutter Gold Mining Company,CA,Gold Ore,5,10,1,1,25,N,120.816944,38.411389,,VI,,,,0,N,N,N,N,N,Amador City,-120.816944
403065,Plumbago Mine,Underground,Michael M Miller,L09340,"Original Sixteen to One Mine, Inc.",CA,Gold Ore,5,8,1,0,3,N,120.812778,39.451111,,VI,,,,0,N,N,N,N,N,Alleghany,-120.812778
401616,Santa Margarita Quarry,Surface,Heidelberg Cement AG,64607,"Hanson Aggregates Mid-Pacific, Inc.",CA,Construction Sand and Gravel,5,8,1,0,13,Y,120.810278,35.861667,,,,,,0,N,N,N,N,N,Santa Margarita,-120.810278
401977,Thomes Creek Rock Co Inc,Surface,Mary  Coulter; Joseph  Coulter,L08950,Thomes Creek Rock Company Inc,CA,Construction Sand and Gravel,5,8,1,,9,Y,120.789877,37.443787,,,,,,,N,N,N,N,N,,-120.789877
4503057,Lorena Butte,Surface,Edgar  Holbrook,L11125,Bishop Red Rock Inc,WA,"Crushed, Broken Stone NEC",5,8,1,0,3,Y,120.781666,45.790277,,,,,,1,N,N,N,N,N,Goldendale,-120.781666
405572,Bradley Plant,Surface,Taiheiyo Cement Corp,L11900,Calportland Construction,CA,Construction Sand and Gravel,5,8,1,0,5,Y,120.780555,35.863055,,,,,,0,N,N,N,N,N,Bradley,-120.780555
4503376,Portable Crusher B,Surface,David  Grainger,L11920,Aggregates West Inc,WA,Construction Sand and Gravel,5,8,1,0,2,Y,120.740277,47.751111,,,,,,0,N,N,N,N,N,Everson,-120.740277
4503387,Alderbrook Quarry ,Surface,John R  Moerke,L16693,"Alderbrook Quarry, Inc.",WA,"Crushed, Broken Stone NEC",5,8,1,1,3,Y,120.740277,47.751111,,,,,,0,N,N,N,N,N,Chehalis,-120.740277
4503204,Van Buren Pit,Surface,David  Grainger,L11920,Aggregates West Inc,WA,Construction Sand and Gravel,5,8,1,0,18,Y,120.740139,47.751074,,,,,,0,N,N,N,N,N,Everson,-120.740139
400099,Lime Mountain,Surface,Bonnie L  Wahl,L35621,Lime Mountain Company,CA,"Crushed, Broken Limestone NEC",5,10,1,1,7,Y,120.683889,35.554167,,,,,,0,N,N,N,N,N,Paso Robles,-120.683889
400539,San Andreas Plant,Surface,Heidelberg Cement AG,L16937,Calaveras Materials Inc,CA,"Crushed, Broken Stone NEC",5,8,1,0,3,Y,120.6825,38.179166,,,,,,0,N,N,N,N,N,SAN ANDREAS,-120.6825
401943,7/11 Materials Inc,Surface,Basic Resources Inc,L14168,7/11 Materials,CA,Construction Sand and Gravel,5,8,1,0,7,Y,120.64,37.635555,,,,,,0,N,N,N,N,N,Waterford,-120.64
404634,Rocky Canyon Plant,Surface,Taiheiyo Cement Corp,L11900,Calportland Construction,CA,Construction Sand and Gravel,5,8,1,1,14,Y,120.611108,35.472085,,,,,,0,N,N,N,N,N,Atascadero,-120.611108
4500994,Ellensburg Pit,Surface,James O  Hutchinson,L01856,Ellensburg Cement Products Inc,WA,Construction Sand and Gravel,5,8,1,0,2,Y,120.606389,47.024167,,,,,,3,N,N,N,N,N,ELLENSBURG,-120.606389
401787,Gordon Sand Co,Surface,George E  Gordon III,L33755,Gordon Sand Co,CA,Construction Sand and Gravel,5,8,1,0,3,Y,120.603772,34.960316,,,,,,0,N,N,N,N,N,Guadalupe,-120.603772
4502508,Portable Unit #1,Surface,James O  Hutchinson,L01856,Ellensburg Cement Products Inc,WA,Construction Sand and Gravel,5,8,1,0,2,Y,120.599166,47.013333,,,,,,0,N,N,N,N,N,Ellensburg,-120.599166
405127,WINTON PIT & MILL,Surface,Teichert Inc,L10703,Santa Fe Aggregates Inc,CA,Construction Sand and Gravel,5,8,1,0,12,Y,120.596944,37.459722,,,,,,0,N,N,N,N,N,"Winton, CA",-120.596944
3500541,Crater Sand & Gravel Inc,Surface,Donald  Savage,L32191,Crater Sand & Gravel Inc,OR,Construction Sand and Gravel,5,8,1,0,15,Y,120.554201,43.804133,,,,,,0,N,N,N,N,N,Central Point,-120.554201
3500454,Alsea Quarries,Surface,George R  Foster; Tracy L  Foster,109346,Alsea Quarries 1 LLC,OR,"Crushed, Broken Traprock",4,8,1,0,3,Y,120.554166,43.804166,,,,,,0,N,N,N,N,N,Alsea,-120.554166
3502979,Harrington Shale Pit,Surface,Thomas L  Harrington,L34075,Harrington Rock Products,OR,"Crushed, Broken Stone NEC",5,8,1,0,2,Y,120.554166,43.804166,,,,,,0,N,N,N,N,N,lebanon,-120.554166
3503479,Diblee Pit,Surface,Craig L  Smith,L16409,B C X Inc,OR,Construction Sand and Gravel,5,8,1,0,1,Y,120.554166,43.804166,,,,,,0,N,N,N,N,N,Rainier,-120.554166
3503498,Mid Valley Gravel Co-Portable Crusher,Surface,Barbara  Ellis,L36256,Mid-Valley Gravel Company,OR,"Crushed, Broken Stone NEC",5,8,1,0,5,Y,120.554166,43.804166,,,,,,0,N,N,N,N,N,Philomath,-120.554166
403126,Table Mountain Plant & Quarry ,Surface,Basic Resources Inc,L00966,George Reed Inc,CA,"Crushed, Broken Stone NEC",5,8,2,0,14,Y,120.513055,37.893611,,,,,,0,N,N,N,N,N,Jamestown,-120.513055
402841,River Rock Pit & Mill,Surface,Heidelberg Cement AG,L16937,Calaveras Materials Inc,CA,Construction Sand and Gravel,6,8,1,0,10,Y,120.507777,37.347222,,,,,,0,N,N,N,N,N,Merced,-120.507777
404792,Carson Hill Rock Products,Surface,Mark  Sutton; Brad  Sutton,L17213,Carson Hill Rock Products,CA,"Crushed, Broken Stone NEC",5,8,1,0,8,Y,120.505555,38.025555,,,,,,0,N,N,N,N,N,Angels Camp,-120.505555
402848,Imerys Lompoc Plant,Surface,Imerys S A,L12218,"Imerys Minerals California, Inc.",CA,Diatomaceous Earth (Diatomite),7,8,3,2,198,N,120.464166,34.608888,,,,,,0,N,N,N,N,N,Lompoc,-120.464166
403489,SIERRA ROCK PRODUCTS,Surface,James D  Hatler,L04876,Sierra Rock Products,CA,"Crushed, Broken Stone NEC",6,8,1,1,8,Y,120.441111,37.9275,,,,,,0,N,N,N,N,N,JAMESTOWN,-120.441111
404716,BLUE MOUNTAIN MINERALS,Surface,Portola Minerals Company,L13595,Blue Mountain Minerals,CA,"Crushed, Broken Limestone NEC",5,8,2,2,54,Y,120.423055,38.069444,,,,,,0,N,N,N,N,N,columbia,-120.423055
405210,Acin Ranch,Surface,Mike  Connors; Janie  Connors,L38344,Sepulveda Building Materials Lompoc Inc,CA,Dimension Stone NEC,4,8,1,0,11,Y,120.393055,34.620277,,,,,,0,N,N,N,N,N,Lompoc,-120.393055
4503654,Pinkham Rock Pit,Surface,Scott  Parker; Del  Matthews,109427,Wapenish Sand and Gravel,WA,Construction Sand and Gravel,5,8,1,0,3,Y,120.376111,46.430556,,,,,,0,N,N,N,N,N,Selah,-120.376111
401879,Coalinga Pit,Surface,Granite Construction Inc,L00039,Granite Construction Company,CA,Construction Sand and Gravel,5,8,2,0,23,Y,120.358056,36.165833,,,,,,1,N,N,N,N,N,Coalinga,-120.358056
4503378,Ram Ridge ,Surface,Lloyd L Palm,L35677,Lloyd Palm Construction,WA,Construction Sand and Gravel,5,8,1,0,2,Y,120.303333,47.476388,,,,,,0,N,N,N,N,N,Wenatchee,-120.303333
4503253,CWC Portable Crusher,Surface,CRH PLC,L00029,Central Washington Concrete,WA,Construction Sand and Gravel,5,8,1,0,5,Y,120.299722,47.405277,,,,,,0,N,N,N,N,N,Yakima,-120.299722
403031,GAREY ROCK PLANT,Surface,Taiheiyo Cement Corp,L11900,CALPORTLAND CONSTRUCTION,CA,Construction Sand and Gravel,5,8,1,1,10,Y,120.299444,34.893611,,,,,,0,N,N,N,N,N,Santa Maria,-120.299444
401959,Sisquoc Rock Plant,Surface,Heidelberg Cement AG,64607,"Hanson Aggregates Mid-Pacific, Inc.",CA,Construction Sand and Gravel,5,8,1,1,12,Y,120.28,34.868055,,,,,,0,N,N,N,N,N,Santa Maria,-120.28
404949,Avenal Asphalt & Aggregate,Surface,W Jaxon  Baker,L16516,"Papich Construction Company, Inc.",CA,Construction Sand and Gravel,5,8,1,0,6,Y,120.229444,36.073611,,,,,,3,N,N,N,N,N,Coalinga,-120.229444
404240,Navajo Rock & Block,Surface,Albert A Lewis,L36624,Navajo Rock & Block,CA,Construction Sand and Gravel,5,4,1,0,1,Y,120.205,35.413888,,,,,,0,N,N,N,N,N,Santa Margarita,-120.205
405371,Le Grand,Surface,W Jaxon  Baker,L16516,Le Grand Asphalt,CA,Construction Sand and Gravel,5,8,1,0,6,Y,120.188056,37.251111,,,,,,0,N,N,N,N,N,LEGRAND,-120.188056
402382,Santa Maria Stone/Colson Quarry,Surface,Paul J  Antolini,134655,G Antolini & Son LLC,CA,Dimension Stone NEC,5,8,1,1,5,Y,120.185847,34.938657,,,,,,0,N,N,N,N,N,Santa Maria,-120.185847
401710,Solvang Plant,Surface,R G  Petersen,L01525,Buellflat Rock Co Inc,CA,Construction Sand and Gravel,5,8,1,0,6,Y,120.154166,34.594444,,,,,,0,N,N,N,N,N,Solvang,-120.154166
4503042,Rock Island Plant,Surface,CRH PLC,L00029,Central Washington Concrete,WA,Construction Sand and Gravel,5,8,1,1,6,Y,120.1375,47.372222,,,,,,2,N,N,N,N,N,Rock Island,-120.1375
4501222,O L Luther Company Incorporated,Surface,Arnold  Luther,L01070,O L Luther Company Inc,WA,Construction Sand and Gravel,5,8,1,1,6,Y,120.124444,46.323889,,,,,,0,N,N,N,N,N,Yakima,-120.124444
404704,Bee Rock Quarry,Surface,Granite Construction Inc,L00039,Granite Construction Company,CA,"Crushed, Broken Limestone NEC",5,8,1,1,6,Y,120.101184,34.489739,,,,,,0,N,N,N,N,N,Santa Barbara,-120.101184
400357,Yosemite Slate Quarry ,Surface,David R  Butler,123570,Mariposa Yosemite Slate Quarry,CA,"Crushed, Broken Slate",5,8,1,0,6,Y,120.020833,37.483611,,,,,,0,N,N,N,N,N,mariposa,-120.020833
4503394,Cegnar Company,Surface,Bob  Cegnar,L16534,Cegnar Company,WA,"Crushed, Broken Stone NEC",5,8,1,0,2,Y,119.988611,46.397222,,,,,,0,N,N,N,N,N,Moses Lake,-119.988611
405781,Mockingbird Mine,Underground,John  Emmett; Lucretia  Emmett,100045,Emmett's Excavation Inc,CA,Gold Ore,5,8,1,0,2,N,119.965556,37.553333,,VI,,,,0,N,N,N,N,N,CLOVIS,-119.965556
403698,Ellwood Pit,Surface,Vic L  Batastini; Ed A  Batastini,L38224,Santa Barbara Sand & Top Soil,CA,"Sand, Industrial NEC",5,8,1,0,5,Y,119.896666,34.443611,,,,,,0,N,N,N,N,N,Goleta,-119.896666
4503480,Kenite Quarry,Surface,Imerys S A,L12218,Imerys Minerals California,WA,Diatomaceous Earth (Diatomite),4,10,2,1,10,N,119.875833,47.08,,,,,,0,N,N,N,N,N,George,-119.875833
400232,Raymond Quarry Plant #1 (Sierra),Surface,Patrick  Alexander,L00067,Cold Spring Granite Company,CA,Dimension Stone NEC,5,8,1,0,8,Y,119.872222,37.220278,,,,,,0,N,N,N,N,N,Raymond,-119.872222
404614,Mesquite,Surface,New Gold Inc,51937,"Western Mesquite Mines, Inc.",CA,Gold Ore,7,12,2,2,277,N,119.862222,36.838333,,,,,,0,N,N,N,N,N,Brawley,-119.862222
4500939,Kenite Plants 1 & 2,Surface,Imerys S A,L12218,Imerys Minerals California,WA,Misc. Nonmetallic Mnls. NEC,7,8,2,1,42,N,119.837777,47.241388,,,,,,0,N,N,N,N,N,Ephrata,-119.837777
401711,River Rock Plant,Surface,Vulcan Materials Company,L16645,CalMat Co,CA,Construction Sand and Gravel,5,10,1,0,24,Y,119.770833,36.902778,,,,,,0,N,N,N,N,N,Fresno,-119.770833
400929,H M Holloway Incorporated,Surface,Estate of Dale Knox; Equity Directions Inc,L11941,H M Holloway Inc,CA,Gypsum,6,10,1,0,21,N,119.755,35.633611,,,,,,0,N,N,N,N,N,Lost Hills,-119.755
2600430,Bing Materials,Surface,Bing Construction Company,L31012,Bing Materials,NV,Construction Sand and Gravel,5,10,1,1,14,Y,119.749167,38.895556,,,,,,0,N,N,N,N,N,GARDNERVILLE,-119.749167
2602089,Mustang Facility,Surface,Kevin L  Robertson; Craig D  Holt,75383,Sierra Nevada Construction Inc.,NV,Construction Sand and Gravel,5,8,1,1,25,Y,119.737222,39.5325,,,,,,0,N,N,N,N,N,"Reno, Nv",-119.737222
401897,Rockfield Plant,Surface,Cemex S A,103149,CEMEX Construction Materials Pacific LLC,CA,Construction Sand and Gravel,5,8,1,1,12,Y,119.735278,36.930833,,,,,,0,N,N,N,N,N,Herndon,-119.735278
2600803,SPANISH SPRINGS PIT #6,Surface,Martin Marietta Materials Inc,L16197,"Martin Marietta Materials, Inc.",NV,Construction Sand and Gravel,2,12,4,0,14,Y,119.721111,39.681944,,,,,,0,N,N,N,N,N,sparks,-119.721111
2600434,Rilite Aggregate ,Surface,Rilite Incorporated,L37799,Rilite Aggregate ,NV,Construction Sand and Gravel,5,9,1,0,5,Y,119.713611,39.416388,,,,,,0,N,N,N,N,N,RENO,-119.713611
3500965,Coyote Springs Sand & Gravel,Surface,Cemex S A,51582,Pacific Rock Products LLC,OR,Construction Sand and Gravel,5,8,1,0,2,Y,119.685,45.844444,,,,,,0,N,N,N,N,N,Boardman,-119.685
2600668,ADAMS CLAIM,Surface,Art  Wilson,L00340,Art Wilson Company,NV,Gypsum,5,8,1,1,48,N,119.684722,39.231944,,,,,,0,N,N,N,N,N,Moundhouse,-119.684722
2602317,DONOVAN PIT,Surface,Lynda M  Donovan,L15077,R T Donovan Company Inc,NV,Construction Sand and Gravel,5,8,1,1,22,Y,119.684681,39.685485,,,,,,0,N,N,N,N,N,sparks,-119.684681
2602082,CEMEX - Sierra Stone Quarry,Surface,Cemex S A,103149,CEMEX Construction Materials Pacific LLC,NV,Construction Sand and Gravel,5,8,1,0,5,Y,119.645833,39.506944,,,,,,0,N,N,N,N,N,sparks,-119.645833
2602470,Spring Valley Mine,Surface,Hau Sun  Ho,50494,Geo Nevada Inc,NV,Gold Ore,4,10,1,0,3,N,119.637777,39.24,,,,,,0,N,N,N,N,N,MOUNDHOUSE,-119.637777
2602412,DAYTON MATERIALS ,Surface,Shane N  Davis; John W  Davis,126273,3D Concrete,NV,Construction Sand and Gravel,5,8,1,1,7,Y,119.585277,39.231111,,,,,,0,N,N,N,N,N,Dayton,-119.585277
4503161,Portable Power Screen,Surface,Nick  Tommer,L12846,Tommer Construction Co Inc,WA,Construction Sand and Gravel,5,8,1,1,2,Y,119.533611,47.338888,,,,,,0,N,N,N,N,N,Ephrata,-119.533611
400231,Raymond Quarry Plant #2 Academy,Surface,Patrick  Alexander,L00067,Cold Spring Granite Company,CA,Dimension Stone NEC,4,10,1,0,5,Y,119.528611,36.893611,,,,,,1,N,N,N,N,N,Clovis,-119.528611
2601006,Basalite Dayton,Surface,Pacific Coast Building Products Inc,L03824,"Basalite Concrete Products, LLC",NV,"Crushed, Broken Stone NEC",5,8,1,0,5,Y,119.526667,39.340556,,,,,,0,N,N,N,N,N,Carson City,-119.526667
2602204,Lockwood Quarry,Surface,Granite Construction Inc,L00039,Granite Construction Company,NV,Construction Sand and Gravel,5,8,1,0,11,Y,119.5225,39.568055,,,,,,0,N,N,N,N,N,sparks,-119.5225
4500191,Tonasket Quarry,Surface,MacDonald Development Corporation,L13760,Pacific Calcium Inc,WA,"Crushed, Broken Limestone NEC",5,8,1,0,22,Y,119.515,48.7975,,,,,,0,N,N,N,N,N,Tonasket,-119.515
2602587,Cedarapids MVP450 Cone S/N49609,Surface,Loren E  Hunewill,L02451,H.E. Hunewill Construction Co. Inc.,NV,"Sand, Common",5,10,1,0,4,Y,119.4875,38.761111,,,,,,0,N,N,N,N,N,Winnemucca,-119.4875
2602589,Cedarapids 3042 Jaw Crusher S/N 289-05-2,Surface,Loren E  Hunewill,L02451,H.E. Hunewill Construction Co. Inc.,NV,"Sand, Common",5,8,1,1,5,Y,119.4875,38.761111,,,,,,0,N,N,N,N,N,Winnemucca,-119.4875
401937,Sanger Plant,Surface,Vulcan Materials Company,L16645,CalMat Co,CA,Construction Sand and Gravel,5,9,2,0,18,Y,119.483056,36.727778,,,,,,0,N,N,N,N,N,Sanger,-119.483056
2600677,Clark Mill ,Surface,EP Management Corporation,80925,"EP Minerals, LLC",NV,Diatomaceous Earth (Diatomite),7,8,3,2,62,N,119.480833,39.564167,,,,,,0,N,N,N,N,N,SPARKS,-119.480833
404898,GPS River Rock Products Co,Surface,Charles E  Beard,51393,GPS River Rock Products Co,CA,Construction Sand and Gravel,5,8,1,0,4,Y,119.470833,34.833333,,,,,,0,N,N,N,N,N,Ventucopa,-119.470833
4503104,Wauconda Quarry,Surface,Northwest Carbonates; Bleeck Management,L09028,Columbia River Carbonates,WA,"Crushed, Broken Limestone NEC",5,8,1,0,2,Y,119.464444,48.647777,,,,,,0,N,N,N,N,N,Okanagan,-119.464444
405481,Ventucopa Quarry,Surface,Mike  Lima,L18194,H Lima Company Inc,CA,Gypsum,5,10,1,1,12,N,119.453333,34.819166,,,,,,0,N,N,N,N,N,Ventucopa,-119.453333
4503627,Hiawatha Wash Plant,Surface,Pamp  Maiers,79103,AAA Ready-Mix Inc II,WA,Construction Sand and Gravel,5,8,1,0,2,Y,119.449166,47.119722,,,,,,0,N,N,N,N,N,Moses Lake,-119.449166
3503452,Rock Solid Sand & Gravel LLC,Surface,Wade  Aylett; Debora L  Aylett,114905,Rock Solid Sand & Gravel,OR,Construction Sand and Gravel,5,8,1,0,2,Y,119.428333,45.804722,,,,,,0,N,N,N,N,N,Hermiston,-119.428333
4503490,Portable Crusher #4,Surface,Pamp  Maiers,L12396,North Central Construction Inc.,WA,Construction Sand and Gravel,5,8,1,0,8,Y,119.389166,46.227777,,,,,,2,N,N,N,N,N,Benton,-119.389166
3500502,JONES-SCOTT CO,Surface,Rhonda  Schroeder,L04514,Jones-Scott Company,OR,Construction Sand and Gravel,5,8,1,0,6,Y,119.303333,45.908611,,,,,,0,N,N,N,N,N,Pendleton,-119.303333
4503498,Hanford Pit,Surface,Eucon Corp,50325,American Rock Products Inc,WA,"Crushed, Broken Stone NEC",5,8,1,0,6,Y,119.293057,46.316486,,,,,,1,N,N,N,N,N,Richland,-119.293057
2600789,CEMEX - Paiute Pit,Surface,Cemex S A,103149,CEMEX Construction Materials Pacific LLC,NV,Construction Sand and Gravel,6,8,1,0,6,Y,119.278055,39.691388,,,,,,0,N,N,N,N,N,Reno,-119.278055
2600816,Fernley Plant,Surface,Imerys S A,L12218,Imerys Minerals California Incorporated,NV,Misc. Nonmetallic Mnls. NEC,5,8,3,1,16,N,119.255148,39.610282,,,,,,0,N,N,N,N,N,Fernley,-119.255148
2600015,Nevada Cement Co Cement Plant,Facility,Eagle Materials Inc,L01086,Nevada Cement Company,NV,Cement,7,12,2,1,123,Y,119.251835,39.607968,,,,,,0,N,N,N,N,N,FERNLEY,-119.251835
4500730,Pasco Facility,Surface,CRH PLC,L00029,Central Pre-Mix Concrete Co.,WA,Construction Sand and Gravel,5,8,1,1,14,Y,119.250277,46.271944,,,,,,0,N,N,N,N,N,Pasco,-119.250277
405727,Sigma Rock,Surface,Jason  Papich; April  Papich,125554,Papich Construction Company Inc,CA,Construction Sand and Gravel,5,8,1,0,8,Y,119.246667,36.553611,,,,,,0,N,N,N,N,N,Orosi,-119.246667
4502994,Portable Crusher #1,Surface,Pamp  Maiers,L12396,North Central Construction ,WA,"Crushed, Broken Stone NEC",4,10,1,0,10,Y,119.211111,47.131666,,,,,,0,N,N,N,N,N,Moses Lake,-119.211111
4503024,Portable Crusher #2,Surface,Pamp  Maiers,L12396,North Central Construction ,WA,Construction Sand and Gravel,5,8,1,0,3,Y,119.211111,47.131666,,,,,,0,N,N,N,N,N,Moses Lake,-119.211111
401800,San Emidio Plant,Surface,Vulcan Materials Company,L16645,CalMat Co,CA,Construction Sand and Gravel,6,8,3,0,25,Y,119.179444,35.042777,,,,,,1,N,N,N,N,N,Mettler,-119.179444
2602591,Rocks Road Pit,Surface,Jim  Chico,70083,Desert Engineering,NV,"Sand, Common",5,8,1,0,3,Y,119.1325,38.939444,,,,,,0,N,N,N,N,N,Yerington,-119.1325
2602711,Pumpkin Hollow East Underground,Underground,Nevada Copper Corporation,121850,Nevada Copper Inc,NV,Copper Ore NEC,5,10,1,0,29,N,119.116389,38.939444,,VI,,,,0,N,N,N,N,N,Yerington,-119.116389
401832,Kaweah River Rock ,Surface,Teichert Inc,L10703,Santa Fe Aggregates Inc,CA,Construction Sand and Gravel,5,8,1,0,4,Y,119.060833,36.396944,,,,,,3,N,N,N,N,N,Woodlake,-119.060833
405798,Santa Paula Materials,Surface,Mile  Grbic,120748,Santa Paula Materials,CA,Construction Sand and Gravel,5,8,1,0,2,Y,119.053056,34.363611,,,,,,0,N,N,N,N,N,Santa Paula,-119.053056
2602629,Reesco Portable,Surface,Bart  Hiatt,L02951,A & K Earth Movers Inc,NV,Construction Sand and Gravel,5,8,1,0,3,Y,119.045833,39.538611,,,,,,0,N,N,N,N,N,Fallon,-119.045833
401756,Edison Sand Pit,Surface,Irene  Bernal,L16129,Edison Sand Company,CA,Construction Sand and Gravel,5,8,1,0,2,Y,119.018611,35.373333,,,,,,0,N,N,N,N,N,Bakersfield,-119.018611
405153,LEMONCOVE GRANITE,Surface,Thomas M  Cairns,L35558,Lemoncove Granite ,CA,"Crushed, Broken Granite",5,8,1,0,5,Y,119.008333,36.381944,,,,,,0,N,N,N,N,N,Lemoncove,-119.008333
400555,Frazier Park,Surface,Trinity Industries Inc,129036,"LWFP, LLC",CA,"Clay, Ceramic, Refractory Mnls.",7,8,3,1,24,Y,119.006389,34.816389,,,,,,1,N,N,N,N,N,Frazier Park,-119.006389
4503615,Buckhorn Mine,Underground,Kinross Gold Corp,75104,Crown Resources-Kettle River Operations,WA,Gold Ore,7,12,2,1,76,N,118.974722,48.943889,,VI,,,,1,N,N,N,N,Y,Chesaw,-118.974722
2601950,Fernley Operations,Surface,EP Management Corporation,80925,"EP Minerals, LLC",NV,Diatomaceous Earth (Diatomite),5,8,1,3,57,N,118.971388,39.829444,,,,,,0,N,N,N,N,N,Fernley,-118.971388
404289,Deer Creek Quarry,Surface,W Jaxon  Baker,L16516,Deer Creek Rock Company Inc.,CA,Construction Sand and Gravel,5,8,1,0,10,Y,118.952778,36.007222,,,,,,0,N,N,N,N,N,Porterville,-118.952778
405694,Decomposed Granite Pit (LG),Surface,Mitchell  Brown,L15270,Porterville Rock and Recycle Inc,CA,"Crushed, Broken Granite",5,8,1,1,2,Y,118.935193,36.10927,,,,,,0,N,N,N,N,N,Porterville,-118.935193
405313,Tule River/Success Dam,Surface,Mitchell  Brown,L15270,Porterville Rock and Recycle Inc,CA,Construction Sand and Gravel,5,8,1,0,16,Y,118.932901,36.050105,,,,,,0,N,N,N,N,N,TULARE,-118.932901
4503337,Wauconda Quarry,Surface,Roger L  Sawyer,L14177,Sawyer & Sawyer Inc,WA,"Crushed, Broken Limestone NEC",4,10,1,0,8,Y,118.921388,48.763611,,,,,,0,N,N,N,N,N,Okanogan,-118.921388
405432,Grimes Rock Inc,Surface,Russell  Cochran,L17323,Grimes Rock Inc,CA,Construction Sand and Gravel,5,8,1,1,14,Y,118.909444,34.334722,,,,,,0,N,N,N,N,N,Fillmore,-118.909444
403447,Edmonston Rock Plant ,Surface,Tom  Foss,L03591,Griffith Company,CA,Construction Sand and Gravel,5,8,2,1,15,Y,118.903055,34.939166,,,,,,0,N,N,N,N,N,Lebec,-118.903055
401915,Wayne J. Sand & Gravel Inc.,Surface,Brett A  Jones,L40063,Wayne J. Sand & Gravel Inc.,CA,Construction Sand and Gravel,5,8,1,0,10,Y,118.886111,34.326666,,,,,,1,N,N,N,N,N,moorpark,-118.886111
404140,Moorpark Quarry,Surface,Cemex S A,51070,CEMEX Construction Materials LP,CA,Construction Sand and Gravel,5,8,1,1,8,Y,118.879166,34.335277,,,,,,0,N,N,N,N,N,Moorpark,-118.879166
2601030,Denton-Rawhide Mine,Surface,Rawhide Acquisition Holding LLC,L11157,Rawhide Mining LLC,NV,Gold Ore,7,12,2,0,67,N,118.786389,39.258056,,,,,,5,N,N,N,N,N,Fallon,-118.786389
2601045,Top Gun Pit,Surface,Thurman  Hiskett; Trula  Hiskett,116565,Hiskett & Sons LLC,NV,Construction Sand and Gravel,5,8,1,0,2,Y,118.777222,39.473889,,,,,,0,N,N,N,N,N,Fallon,-118.777222
2600687,Portable Plant #1,Surface,Churchill County-NV,L31805,Churchill County Road Department,NV,Construction Sand and Gravel,5,8,1,0,3,Y,118.773055,39.479166,,,,,,0,N,N,N,N,N,FALLON,-118.773055
2601655,Borealis Mine,Surface,Gryphon Gold Corporation; Waterton Global Value L P,127133,"Borealis Mining Company, LLC",NV,Gold Ore,7,12,2,1,39,N,118.77,38.388056,,,,,,0,N,N,N,N,N,Hawthorne,-118.77
400213,Lebec Cement Plant ,Facility,Vicat S A,L10040,National Cement Company Of California Inc,CA,Cement,7,8,3,3,112,Y,118.748889,34.820833,,,,,,0,N,N,N,N,N,lebec,-118.748889
404360,Arvin Pit,Surface,Granite Construction Inc,L00039,Granite Construction Company,CA,Construction Sand and Gravel,5,8,1,1,15,Y,118.744444,35.209444,,,,,,0,N,N,N,N,N,Arvin,-118.744444
2600578,Ashdown Mine,Underground,Win-Eldrich Mines Ltd; Golden Phoenix Minerals Inc,85884,Ashdown Project LLC,NV,Molybdenum Ore,5,8,1,0,2,N,118.727778,41.858611,,VI,,,,0,N,N,N,N,N,Denio,-118.727778
401888,Canyon Rock Plant,Surface,Celine L  Gillibrand,L01040,"Gillibrand Industrial Sands, Inc.",CA,"Sand, Industrial NEC",5,8,2,0,44,Y,118.716944,34.3325,,,,,,0,N,N,N,N,N,Simi Valley,-118.716944
404212,Tapo Rock & Sand,Surface,William C  Brooks,L10778,Tapo Rock & Sand,CA,Construction Sand and Gravel,5,8,1,0,5,Y,118.707429,34.327532,,,,,,0,N,N,N,N,N,Simi Valley,-118.707429
2600347,Salt Flat,Surface,John R  Huckaby,L34402,Huck Salt Company,NV,Salt,5,8,1,1,11,N,118.684167,39.473611,,,,,,0,N,N,N,N,N,"Fallon, NV",-118.684167
4503283,Kettle River Mill Site,Facility,Kinross Gold Corp,51754,Kinross Gold Corp Kettle River Operations,WA,Gold Ore,7,12,2,0,55,N,118.616944,48.666666,,,,,,1,N,N,N,N,N,Republic,-118.616944
4503448,Portable #1,Surface,Guy  Copenhaver; Matt  Copenhaver,L17536,Copenhaver Construction Inc,WA,Construction Sand and Gravel,5,10,1,0,8,Y,118.496388,47.758333,,,,,,0,N,N,N,N,N,CRESTON,-118.496388
2600672,Colado Mine,Surface,EP Management Corporation,80925,"EP Minerals, LLC",NV,Diatomaceous Earth (Diatomite),4,10,1,1,36,N,118.473611,40.179444,,,,,,0,N,N,N,N,Y,LOVELOCK,-118.473611
2601941,Rochester Mine,Surface,"Coeur Mining, Inc.",L08263,"Coeur Rochester, Inc.",NV,Silver Ore,7,12,2,2,290,N,118.473611,40.179444,,,,,,0,N,N,N,N,Y,Lovelock,-118.473611
1601337,Angelle Aggregates LLC,Surface,Angelle Concrete Group LLC,117185,"Angelle Aggregates, LLC",LA,Construction Sand and Gravel,5,9,1,0,5,Y,118.4675,34.05,,,,,,0,N,N,N,N,N,Clinton,-118.4675
400196,Tehachapi Plant,Facility,Heidelberg Cement AG,L16900,Lehigh Southwest Cement,CA,Cement,5,12,2,2,101,Y,118.397778,35.125278,,,,,,0,N,N,N,N,N,Tahachapi,-118.397778
400247,Rasmussen Soledad Rock Quarry,Surface,Taylor  Rasmussen,88624,Rasmussen R&R Inc.,CA,Construction Sand and Gravel,5,8,1,1,4,Y,118.389722,34.435277,,,,,,0,N,N,N,N,N,Canyon Country,-118.389722
401736,Sun Valley Plant,Surface,Vulcan Materials Company,L16645,CalMat Co,CA,Construction Sand and Gravel,5,8,2,1,42,Y,118.379444,34.228611,,,,,,0,N,N,N,N,N,Los Angeles,-118.379444
2600680,Colado Plant,Surface,EP Management Corporation,80925,"EP Minerals, LLC",NV,Diatomaceous Earth (Diatomite),7,12,2,1,140,N,118.359722,40.240833,,,,,,0,N,N,N,N,Y,Lovelock,-118.359722
400081,PEBBLY BEACH QUARRY,Surface,MDU Resources Group Inc,L17618,Connolly-Pacific Company,CA,"Crushed, Broken Stone NEC",5,8,1,0,19,Y,118.314233,33.339782,,,,,,0,N,N,N,N,N,Catalina Island,-118.314233
400036,Mojave Plant & Quarry,Facility,Taiheiyo Cement Corp,L11900,Calportland,CA,Cement,7,10,2,1,133,Y,118.294722,35.038333,,,,,,0,N,N,N,N,N,Mojave,-118.294722
2601650,Fencemaker,Underground,First Liberty Power Corp,106785,Stockpile Reserves LLC,NV,Antimony Ore,4,0,0,1,3,N,118.28,40.399167,,VI,,,,0,N,N,N,N,N,Pershing,-118.28
2602758,Gypsum Mountain,Surface,Paul R  Gianoli,131213,Silver State Minerals LLC,NV,Gypsum,5,8,1,0,4,N,118.221667,40.104167,,,,,,0,N,N,N,N,N,Lovelock,-118.221667
2600125,Grefco Mine & Mill ,Surface,Dicalite Management Group,L15385,Grefco Minerals Inc,NV,Misc. Nonmetallic Mnls. NEC,4,10,1,0,10,N,118.212222,37.995556,,,,,,0,N,N,N,N,N,Coaldale,-118.212222
2601947,Florida Canyon Mine,Surface,Jipangu International,L09380,Florida Canyon Mining Inc,NV,Gold Ore,7,12,2,2,150,N,118.159167,40.768056,,,,,,0,N,N,N,N,Y,Imlay,-118.159167
405169,Acton Clay Quarries,Surface,North Star Minerals Incorporated,L12047,North Star Minerals Inc,CA,"Clay, Ceramic, Refractory Mnls.",5,8,1,0,3,Y,118.157777,34.460277,,,,,,0,N,N,N,N,N,Acton,-118.157777
402999,Canebrake Pit,Surface,Donna  Ladd; Leroy  Ladd,130574,Ladd Ready Mix LLC,CA,Construction Sand and Gravel,4,6,1,0,4,Y,118.1275,35.733888,,,,,,0,N,N,N,N,N,Lake Isabella,-118.1275
2601962,Hycroft Mine,Surface,Allied Nevada Gold Corp,L09449,Hycroft Resources & Development Inc,NV,Gold Ore,7,12,2,2,440,N,118.126389,40.953889,,,,,,1,N,N,N,N,N,Winnemucca,-118.126389
4503555,Kelly Hill Quarry,Surface,James F  Bennett,51060,White Stone Calcium Inc,WA,"Crushed, Broken Limestone NEC",5,8,1,0,5,Y,118.068611,48.788611,,,,,,0,N,N,N,N,N,Kettle Falls,-118.068611
402834,Owens Lake Mine,Surface,Rio Tinto Group,L13075,U S Borax Inc ,CA,Trona,4,10,1,0,4,N,118.065556,36.610556,,,,,,0,N,N,N,N,N,Lone Pine,-118.065556
3500507,"R. D. MAC, Inc.",Surface,Jerome J  Collman,L38034,"R. D. MAC, Inc.",OR,Construction Sand and Gravel,5,10,1,1,7,Y,118.044167,45.305556,,,,,,1,N,N,N,N,N,LaGrande,-118.044167
404802,Littlerock Quarry,Surface,Robar Enterprises Inc,L08509,Hi-Grade Materials Co,CA,Construction Sand and Gravel,5,8,1,1,13,Y,118.018888,34.542777,,,,,,2,N,N,N,N,N,Littlerock,-118.018888
2602535,Hollister Mine,Underground,Waterton Global Mining Co LLC,128374,"Waterton Global Mining Company, LLC",NV,Gold Ore,1,1,1,0,2,N,118.018611,41.051667,,VI,,,,0,N,N,N,N,N,Denio,-118.018611
2602643,Hwy 95 Pit,Surface,Norman D  Sweeney,L17446,Norman D Sweeney Construction,NV,"Sand, Common",5,8,1,0,2,Y,118.018611,41.066389,,,,,,0,N,N,N,N,N,WINNEMUCCA,-118.018611
402125,Palmdale Plant,Surface,Vulcan Materials Company,L16645,CalMat Co,CA,Construction Sand and Gravel,5,12,1,1,15,Y,118.013056,34.510278,,,,,,1,N,N,N,N,N,Littlerock,-118.013056
404930,Holliday Rock-Little Rock Plant ,Surface,Penny J  Holliday,L01650,Holliday Rock Company Inc,CA,Construction Sand and Gravel,5,8,1,1,6,Y,118.013055,34.510277,,,,,,0,N,N,N,N,N,Littlerock,-118.013055
405309,PECK ROAD GRAVEL PIT,Surface,Steve  Bubalo,L38124,S L S & N Inc,CA,Construction Sand and Gravel,5,8,1,1,7,Y,118.003611,34.111111,,,,,,0,N,N,N,N,N,Monrovia,-118.003611
401690,Littlerock Plant,Surface,Penny J  Holliday,L01650,Holliday Rock Company Inc,CA,Construction Sand and Gravel,5,8,1,0,4,Y,118.002329,34.54281,,,,,,0,N,N,N,N,N,Littlerock,-118.002329
404803,Palmdale ,Surface,Robertson's Ready Mix Inc; Mitsubishi Corp,L14361,Robertson's,CA,Construction Sand and Gravel,5,8,1,1,15,Y,117.995833,34.576111,,,,,,0,N,N,N,N,N,Palmdale,-117.995833
2601674,Columbus Project,Surface,Ireland Inc,L17103,Columbus SM LLC,NV,Rare Earths Ore,5,8,1,0,9,N,117.993611,38.119167,,,,,,0,N,N,N,N,N,Coaldale,-117.993611
401734,Durbin Plant,Surface,Vulcan Materials Company,L16645,CalMat Co,CA,Construction Sand and Gravel,5,8,1,1,7,Y,117.988055,34.091944,,,,,,0,N,N,N,N,N,Irwindale,-117.988055
401763,IRWINDALE PLANT,Surface,Colas S A,L17072,United Rock Products Corp,CA,Construction Sand and Gravel,5,8,2,1,31,Y,117.980555,34.118333,,,,,,0,N,N,N,N,N,Irwindale,-117.980555
404665,Mojave Pit,Surface,Penny J  Holliday,L01650,Holliday Rock Company Inc,CA,Construction Sand and Gravel,5,8,1,0,8,Y,117.977778,34.963056,,,,,,0,N,N,N,N,N,Mojave,-117.977778
401838,Irwindale Rock Plant,Surface,Heidelberg Cement AG,L16389,Hanson Aggregates Pacific Southwest Inc,CA,Construction Sand and Gravel,5,8,2,1,32,Y,117.973611,34.111111,,,,,,0,N,N,N,N,N,Irwindale,-117.973611
404926,Littlerock,Surface,Granite Construction Inc,L00039,Granite Construction Company,CA,Construction Sand and Gravel,5,8,1,1,6,Y,117.96,34.516944,,,,,,1,N,N,N,N,N,Palmdale,-117.96
2602635,SUNRISE GOLD PLACER MINE,Surface,Donald E  Siecke,87884,Sunrise Minerals,NV,Gold Ore,5,8,1,0,7,N,117.949722,40.731944,,,,,,0,N,N,N,N,N,Winnemucca,-117.949722
3503345,North Powder Quarry Crusher #1,Surface,Dan E  Hooker,L03759,Harney Rock & Paving Company,OR,"Crushed, Broken Stone NEC",5,10,1,1,8,Y,117.938888,44.911666,,,,,,0,N,N,N,N,N,Haines,-117.938888
400226,Dolomite Mine,Surface,Federal White Cement Ltd,L12168,F W Aggregate Inc,CA,"Crushed, Broken Marble",4,10,1,0,5,Y,117.9375,36.5575,,,,,,0,N,N,N,N,N,Lone Pine,-117.9375
403200,Reliance Plant,Surface,Vulcan Materials Company,L16645,CalMat Co,CA,Construction Sand and Gravel,5,10,2,1,31,Y,117.931667,34.133611,,,,,,0,N,N,N,N,N,Irwindale,-117.931667
401696,Azusa Quarry ,Surface,Cemex S A,103149,"Cemex Construction Materials Pacific, LLC",CA,Construction Sand and Gravel,5,8,1,0,9,Y,117.930556,34.115278,,,,,,0,N,N,N,N,N,Azusa,-117.930556
404783,Global Pumice Mine - Olancha,Surface,Garrett  Petelski; Thomas  Hrubik,131593,"Global Pumice, LLC",CA,Construction Sand and Gravel,5,8,1,0,4,Y,117.927222,36.223333,,,,,,0,N,N,N,N,N,Olancha,-117.927222
404674,Azusa Rock,Surface,Vulcan Materials Company,L16645,CalMat Co,CA,"Crushed, Broken Stone NEC",5,8,1,0,12,Y,117.924722,34.156111,,,,,,0,N,N,N,N,N,irwindale,-117.924722
403623,Red Hill,Surface,Cemex S A,51070,Cemex Construction Materials LP,CA,Construction Sand and Gravel,5,10,1,0,7,Y,117.9075,35.935556,,,,,,0,N,N,N,N,N,Little Lake,-117.9075
4503373,Sprague Quarry,Surface,Eucon Corp,L15752,Mainline Rock & Ballast Inc,WA,"Crushed, Broken Stone NEC",4,10,1,0,5,Y,117.891389,47.332778,,,,,,1,N,N,N,N,N,Sprague,-117.891389
405778,Big Rock Creek,Surface,Vulcan Materials Company,L16645,CalMat Co,CA,Construction Sand and Gravel,5,8,1,1,7,Y,117.853333,34.509444,,,,,,0,N,N,N,N,N,Pear Blossom,-117.853333
4503263,Portable Crusher,Surface,Thomas J  Konen,L12217,Konen Rock Crushing Inc,WA,Construction Sand and Gravel,5,10,1,1,5,Y,117.851666,46.232777,,,,,,0,N,N,N,N,N,Dayton,-117.851666
402638,Maricopa Plant,Surface,Nestle S A,50705,Nestle Purina PetCare Company,CA,"Crushed, Broken Stone NEC",7,8,2,0,86,Y,117.798611,33.733611,,,,,,0,N,N,N,N,N,Maricopa,-117.798611
401974,Hallwood Plant,Surface,Teichert Inc,L06891,Teichert Aggregates,CA,Construction Sand and Gravel,5,8,2,0,4,Y,117.766666,33.738888,,,,,,0,N,N,N,N,N,Marysville,-117.766666
2601595,MIN-AD Inc,Facility,Secret Pass Gold Inc,L17747,MIN-AD Inc,NV,"Crushed, Broken Limestone NEC",6,9,2,2,13,Y,117.758056,40.971111,,,,,,0,N,N,N,N,N,Winnemucca,-117.758056
4500001,Gehrke Pit,Surface,Dale B  Borgford,119251,Allied Minerals Inc,WA,"Crushed, Broken Limestone NEC",5,8,1,0,3,Y,117.744167,48.131111,,,,,,0,N,N,N,N,N,"Springdale, WA",-117.744167
4500983,Lane Mtn Silica Quarry & Mill,Surface,Hemphill Brothers Inc,L07954,Lane Mt. Silica Co.,WA,Ground Silica,7,12,2,0,39,N,117.744167,48.131111,,,,,,0,N,N,N,N,N,"VALLEY, WA",-117.744167
200722,CEMEX - HWY 95,Surface,Cemex S A,93625,CEMEX Construction Materials South LLC,AZ,Construction Sand and Gravel,5,8,1,0,16,Y,117.735833,40.972777,,,,,,0,N,N,N,N,N,Yuma,-117.735833
2602638,Kolberg 1822PH Washplant S/N406286,Surface,Loren E  Hunewill,L02451,H E Hunewill Construction Co Inc,NV,"Sand, Common",5,10,1,0,3,Y,117.733889,40.900833,,,,,,0,N,N,N,N,N,Winnemucca,-117.733889
2600734,Sexton Mine ,Surface,David  Sexton,79884,Nutritional Additives,NV,Dimension Limestone,1,8,1,0,6,Y,117.7275,40.851389,,,,,,0,N,N,N,N,N,Winnemucca,-117.7275
2602302,Mineral Ridge Mine,Surface,Pete  Hawley; Chris  Zerga,111425,"Mineral Ridge Gold, LLC",NV,Gold Ore,7,12,2,2,78,N,117.719444,37.793333,,,,,,2,N,N,N,N,Y,Silver Peak,-117.719444
4503529,Chewelah Plant,Surface,James F  Bennett,51060,Whitestone Calcium Inc,WA,Dimension Marble,5,8,1,0,11,Y,117.715278,48.252778,,,,,,0,N,N,N,N,N,Chewelah,-117.715278
400743,Boron Operations,Surface,Rio Tinto Group,L13075,U S Borax Inc,CA,Boron Minerals,7,8,3,1,684,N,117.703333,35.022222,,,,,,6,N,N,N,N,N,Boron,-117.703333
401808,Upland Pit and Mill,Surface,Penny J  Holliday,L01650,Holliday Rock Company Inc,CA,Construction Sand and Gravel,5,8,1,0,8,Y,117.69493,34.106868,,,,,,0,N,N,N,N,N,Upland,-117.69493
2602599,Alum Pit,Surface,Jerry  Tyler; Paul H  Sturgeon,127013,"Heart of Nature, LLC",NV,Potassium Compounds,4,10,1,0,8,N,117.649444,37.768055,,,,,,0,N,N,N,N,N,Silver Peak,-117.649444
2600002,Premier Magnesia LLC,Facility,John  Gehret,L18161,Premier Magnesia LLC,NV,Magnesite,7,12,3,1,86,Y,117.643611,38.885833,,,,,,0,N,N,N,N,N,Gabbs,-117.643611
401987,Campus Plant ,Surface,Penny J  Holliday,L01650,Holliday Rock Company Inc,CA,Construction Sand and Gravel,5,10,1,0,15,Y,117.636389,34.136667,,,,,,0,N,N,N,N,N,Upland,-117.636389
402964,Taft Production Company & Mines,Surface,Oil Dri Corporation Of America,50924,Taft Production Company,CA,Common Clays NEC,5,8,2,1,85,Y,117.636389,34.136667,,,,,,3,N,N,N,N,N,Taft,-117.636389
404965,Hi Desert Rustic Stone,Surface,John D  Chesney; Tommy J  Jaworsky,L13193,Sydney Peak Stone Inc,CA,Dimension Slate,5,8,1,0,16,Y,117.636389,35.33,,,,,,0,N,N,N,N,N,Red Mountain,-117.636389
404483,Sydney Peak Stone,Surface,John D  Chesney; Tommy J  Jaworsky,L13193,"Sydney Peak Stone, Inc.",CA,Dimension Stone NEC,5,8,1,0,44,Y,117.63,35.37,,,,,,0,N,N,N,N,N,Red Mountain,-117.63
4503384,Airway Sand & Gravel,Surface,Eucon Corp,L06053,Spokane Rock Products Inc,WA,Construction Sand and Gravel,5,8,1,0,3,Y,117.603889,47.635556,,,,,,2,N,N,N,N,N,Spokane,-117.603889
402801,Orange County Operation,Surface,Celine L  Gillibrand,126913,Lapeyre Industrial Sands Inc,CA,"Sand, Industrial NEC",5,8,3,1,43,Y,117.580555,33.513888,,,,,,0,N,N,N,N,N,San Juan Capistrano,-117.580555
405444,Ranch Rock Capo,Surface,Nicholas J  Tonkinson,119858,Ranch Rock Corporation,CA,Construction Sand and Gravel,5,8,1,0,1,Y,117.567778,33.884722,,,,,,0,N,N,N,N,N,CORONA,-117.567778
405661,Day Creek Spreading Grounds,Surface,Jeff  Carpenter,68263,Jeff Carpenter Inc,CA,"Sand, Industrial NEC",5,8,1,0,1,Y,117.536389,34.108056,,,,,,0,N,N,N,N,N,Rancho Cucamonga,-117.536389
403646,All American Aggregates,Surface,Mark  Luer,L30271,All American Aggregates,CA,Construction Sand and Gravel,5,8,2,1,55,Y,117.524722,33.868333,,,,,,0,N,N,N,N,N,Corona,-117.524722
405095,Corona Plant,Surface,Vulcan Materials Company,L16645,CalMat Co,CA,Construction Sand and Gravel,5,8,1,1,33,Y,117.521666,33.86,,,,,,0,N,N,N,N,N,Corona,-117.521666
400191,3M Corona Plant,Surface,Minnesota Mining & Manufacturing Company,L00273,Minnesota Mining & Manufacturing Company,CA,"Crushed, Broken Stone NEC",5,8,3,0,85,Y,117.511944,33.848333,,,,,,0,N,N,N,N,N,Corona,-117.511944
405075,3M,Surface,Frank  Smith,L10813,FST Sand & Gravel Inc,CA,Construction Sand and Gravel,5,10,1,1,56,Y,117.511944,33.848333,,,,,,0,N,N,N,N,N,Corona,-117.511944
405308,#1 PORTABLE,Surface,Antonio  Paredes,L15041,Rock Structures Construction,CA,"Crushed, Broken Stone NEC",5,8,1,0,5,Y,117.511944,33.848333,,,,,,0,N,N,N,N,N,Corona,-117.511944
404758,Eagle Valley Quarry,Surface,Heidelberg Cement AG,L16389,Hanson Aggregates Pacific Southwest Inc,CA,Construction Sand and Gravel,5,8,1,0,11,Y,117.510555,33.845,,,,,,0,N,N,N,N,N,corona,-117.510555
405574,Eagle Valley,Surface,Christopher B  Smith,96725,Pacific States Transportation,CA,"Sand, Industrial NEC",5,8,1,0,1,Y,117.494722,33.826944,,,,,,0,N,N,N,N,N,Corona,-117.494722
4503690,Moon Rock Company,Surface,Steven L  Woodard,118191,Moon Rock Company,WA,Construction Sand and Gravel,5,8,1,0,4,Y,117.494722,47.581667,,,,,,0,N,N,N,N,N,Spokane,-117.494722
404157,Chandler Aggregates-Sierra Plant,Surface,Jim  Broyles,L13940,Chandler Aggregates Inc,CA,Construction Sand and Gravel,5,10,2,1,28,Y,117.483055,33.7575,,,,,,1,N,N,N,N,N,Corona,-117.483055
403684,MAITRI CANYON PLANT,Surface,Jim  Broyles,L12911,Foster Sand & Gravel,CA,Construction Sand and Gravel,5,8,1,1,19,Y,117.477777,33.745833,,,,,,2,N,N,N,N,N,Corona,-117.477777
403871,Mayhew Plant,Surface,John  Robertson; Patrick  Broyles,124230,Mayhew Aggregates & Mine Reclamation,CA,Construction Sand and Gravel,5,8,1,0,4,Y,117.476944,33.758333,,,,,,1,N,N,N,N,N,Corona,-117.476944
405553,#2 Portable,Surface,Antonio  Paredes,L15041,Rock Structures Construction Co,CA,"Crushed, Broken Stone NEC",5,8,1,0,2,Y,117.465,33.828888,,,,,,0,N,N,N,N,N,Corona,-117.465
3502970,Durkee Cement Plant,Facility,Ash Grove Cement Company,L02019,Ash Grove Cement Co,OR,Cement,5,8,2,0,118,Y,117.421,44.5437,,,,,,0,N,N,N,N,N,Durkee,-117.421
405392,Rialto,Surface,Robertson's Ready Mix Inc; Mitsubishi Corp,L14361,Robertson's ,CA,Construction Sand and Gravel,5,8,2,2,28,Y,117.418333,34.150556,,,,,,0,N,N,N,N,N,Rialto,-117.418333
400275,Panamint Valley Limestone Quarry,Surface,Constellation Operating Services Inc; Arclight,L15382,Ace Cogeneration Company,CA,"Crushed, Broken Limestone NEC",5,8,1,0,2,Y,117.400833,36.161111,,,,,,0,N,N,N,N,N,Trona,-117.400833
405216,Lytle Creek Pit,Surface,Cemex S A,51070,CEMEX Construction Materials LP,CA,Construction Sand and Gravel,5,8,1,1,29,Y,117.399722,34.156389,,,,,,0,N,N,N,N,N,Rialto,-117.399722
404263,Riverside Operation,Facility,Pioneer Natural Resources USA Incorporated,L13776,Premier Silica LLC,CA,Ground Silica,5,8,2,0,4,N,117.396111,34.016944,,,,,,0,N,N,N,N,N,Riverside,-117.396111
400558,Pacific Clay Pits,Surface,David H  Murdock,L00727,Pacific Clay Products Inc,CA,Common Clays NEC,5,8,1,0,4,Y,117.393056,33.726389,,,,,,0,N,N,N,N,N,Lake Elsinore,-117.393056
400010,Crestmore Quarry,Facility,Martin Marietta Materials Inc; TXI Industries Inc,L15861,Riverside Cement Co,CA,Cement,5,10,2,0,32,Y,117.390278,34.033889,,,,,,0,N,N,N,N,N,Riverside,-117.390278
405635,Pacific Aggregates Pits,Surface,David H  Murdock,63043,Pacific Aggregates Inc,CA,Construction Sand and Gravel,5,8,1,1,30,Y,117.389722,33.702222,,,,,,0,N,N,N,N,Y,Lake Elsinore,-117.389722
405847,California Silica Products,Surface,Randall  Humphreys; Robert  Humphreys,123751,Western States Wholesale,CA,"Sand, Common",5,8,2,1,12,Y,117.383888,34.558333,,,,,,0,N,N,N,N,N,Victorville,-117.383888
405276,CR Briggs,Surface,Atna Resources Ltd.,L11967,CR Briggs,CA,Gold Ore,4,10,1,0,6,N,117.371666,35.762777,,,,,,1,N,N,N,N,N,Trona,-117.371666
405595,Harlow Quarry/Corona,Surface,Barney R  Northcote,L18360,Barney Northcote Inc ,CA,"Sand, Common",5,8,1,0,9,Y,117.37,33.896388,,,,,,0,N,N,N,N,N,WOODCREST,-117.37
3503236,Celatom Plant,Facility,EP Management Corporation,80925,"EP Minerals, LLC",OR,Misc. Nonmetallic Mnls. NEC,5,8,1,0,53,N,117.365555,43.946388,,,,,,0,N,N,N,N,N,Vale,-117.365555
405638,Nichols Road Pit,Surface,Jim  Broyles,L13940,Chandler Aggregates Inc,CA,Construction Sand and Gravel,5,8,1,0,8,Y,117.364722,33.705833,,,,,,0,N,N,N,N,N,Lake Elsinore,-117.364722
4500366,Pend Oreille Mine,Underground,Teck Resources Limited,87325,Teck Washington Incorporated,WA,Zinc,7,11,2,1,139,N,117.359722,48.881944,,VI,,,,1,Y,N,N,N,N,Metaline Falls,-117.359722
405735,Riverside,Surface,Harold  Newman,L10305,A-1 Grit,CA,"Sand, Industrial NEC",5,8,1,0,12,Y,117.353333,33.987777,,,,,,0,N,N,N,N,N,Riverside,-117.353333
401984,San Bernardino Plant,Surface,Vulcan Materials Company,L16645,CalMat Co,CA,Construction Sand and Gravel,5,8,2,1,24,Y,117.344444,34.136111,,,,,,0,N,N,N,N,N,Highland,-117.344444
404916,Oro Grande Pit,Surface,Robert E  Hove; Jonathan D  Hove,L12641,Agcon Inc,CA,Construction Sand and Gravel,5,8,1,0,4,Y,117.339722,34.674166,,,,,,0,N,N,N,N,N,Oro Grande,-117.339722
400011,Oro Grande Quarry,Facility,Martin Marietta Materials Inc; TXI Industries Inc,L15861,Riverside Cement Co,CA,Cement,7,8,3,1,137,Y,117.335833,34.606389,,,,,,0,N,N,N,N,N,Oro Grande,-117.335833
405557,TXI-Riverside Cement,Surface,Ronnie  Harriman,51298,Ron Harriman's  Loader Service,CA,"Crushed, Broken Stone NEC",5,8,1,0,4,Y,117.335833,34.606388,,,,,,0,N,N,N,N,N,Oro Grande,-117.335833
